"Lake_ID","Date","LakeName","LabName","Country","Latitude","Longitude","Altitude_m","MaximumDepth_m","MeanDepth_m","SecchiDepth_m","SamplingDepth_m","ThermoclineDepth_m","SurfaceTemperature_C","EpilimneticTemperature_C","TP_mgL","TN_mgL","NO3NO2_mgL","NH3_mgL","PO4_ugL","Chlorophylla_ugL","Chlorophyllb_ugL","Zeaxanthin_ugL","Diadinoxanthin_ugL","Fucoxanthin_ugL","Diatoxanthin_ugL","Alloxanthin_ugL","Peridinin_ugL","Chlorophyllc2_ugL","Echinenone_ugL","Lutein_ugL","Violaxanthin_ugL","MC_YR_ugL","MC_dmRR_ugL","MC_RR_ugL","MC_dmLR_ugL","MC_LR_ugL","MC_LY_ugL","MC_LW_ugL","MC_LF_ugL","NOD_ugL","CYN_ugL","ATX_ugL"
"AT_MON",2015-08-03,"Mondsee","WEISSE","Austria",47.80302778,13.42019444,481,68,36,2.4,10,9.26,20.44,17.93,0.15,NA,0.257,0.03,NA,1.976,0,0,0,0.267,0,0,0.189,0.156,0,0,0,0,0,0,0,0,0,0,0,0,0,0
"CH_BRE",2015-08-12,"Brenet","FOREL","Switzerland",46.67375,6.322252778,1002,18,NA,1.05,10.5,11.79,23.02,21.06,0.02,0.6,0.118,NA,NA,0.618,0,0.235,0,0,0,0,0,0,0,0,0,0,0,0,0.0011,0,0,0,0,0,0,0
"CH_BRET",2015-08-25,"Bret","FOREL","Switzerland",46.51416111,6.773583333,674,13,NA,1.6,9,7.91,20.58,19.25,0.09,0.2,0.007,NA,6.421,5.91,2.289,1.032,0,0,0,0.229,0,0,0,0,0,0.002,0,0,0.0027,0.0042,0,0,0,0,0,0
"CH_DIV",2015-08-14,"Divonne","FOREL","Switzerland",46.35461667,6.152488889,466,4,NA,3.5,3,NA,25.99,25.85,0.12,0.2,NA,NA,4.543,5.328,0.677,0,0,0.941,0,0,0,0.192,0,0,0,0,0,0,0.0017,0.0187,0,0,0,0,0,0
"CH_GE3",2015-08-10,"Geneva_GE3","FOREL","Switzerland",46.29200278,6.213036111,372,310,154.4,4.6,21,20.29,22.54,13.95,0.02,0.5,0.44,NA,4.386,2.121,0.704,0.257,0,0,0,0,0,0.057,0,0,0,0,0,0,0,0,0,0,0,0,0,0
"CH_GRE",2015-08-20,"Greifen","FOREL","Switzerland",47.33993333,8.678416667,435,32,18,1.15,13,8.83,21.1,16.23,0.02,1.4,0.84,NA,NA,2.9,0.833,0.473,0,0,0,0,0,0,0,0,0,0,0,0,0,0,0,0,0,0,0,0
"CH_HAL",2015-08-17,"Hallwil","FOREL","Switzerland",47.28744722,8.2115,449,48,28,1.75,12,8.57,23.86,19.36,0.02,1.1,0.73,NA,NA,6.711,0.3,0.827,0,0,0,0,0,0.15,0,0,0,0.071,0.3016,0,0.2896,0.0051,0,0,0,0,0,0
"CH_JOU",2015-08-12,"Joux","FOREL","Switzerland",46.63895278,6.286463889,1004,32,NA,4,11,11.25,21.55,19.71,0.07,0.4,0.08,NA,NA,2.585,0.139,0.188,0,0.172,0,0.146,0,0.118,0,0,0,0.028,0.0904,0,0.056,0.0029,0,0,0,0,0,0
"CH_LUC",2015-08-27,"Lucerne","FOREL","Switzerland",47.02083333,8.355516667,434,214,104,7.23,20,22.28,19.68,16.83,0.13,0.5,0.332,NA,NA,0.794,0,0.075,0,0.127,0,0,0,0.079,0,0,0,0,0,0,0,0,0,0,0,0,0,0
"CH_MOR",2015-08-13,"Morat","FOREL","Switzerland",46.92760833,7.074027778,429,45,NA,1.2,14,13.16,26.75,20.35,0.07,1.4,2.043,NA,4.608,1.128,0.101,0.147,0,0,0,0.065,0,0,0,0,0,0,0,0,0,0.0042,0,0,0,0,0,0
"CH_OBE",2015-08-18,"Ober ","FOREL","Switzerland",47.20716389,8.821936111,406,48,23,3,19,12.79,22.08,16.12,0.15,0.5,0.469,NA,NA,0.483,0,0,0,0,0,0,0,0,0,0,0,0,0,0,0,0,0,0,0,0,0,0
"CH_PFA",2015-08-20,"Pfaffikon","FOREL","Switzerland",47.35079167,8.782402778,537,36,18.5,2.3,10,7.21,22.79,15.14,0.02,0.7,0.375,NA,5.304,2.663,0.252,0.59,0,0,0,0.144,0,0.098,0,0,0,0.005,0,0,0.011,0,0,0,0,0,0,0
"CH_SEM",2015-08-22,"Sempacher","FOREL","Switzerland",47.14369444,8.150269444,504,87,44,1.5,13,8.6,22.18,17.09,0.05,0.5,0.256,NA,4.058,4.166,1.248,0.54,0,0,0,0.131,0,0,0,0,0.049,0.002,0,0,0.0036,0,0,0,0,0,0,0
"CH_SHL2",2015-08-03,"Geneva_SHL2","FOREL","Switzerland",46.44721944,6.583597222,372,310,154.4,5.95,25,16.14,22.16,18.12,0.04,0.9,0.32,NA,NA,1.781,0.658,0.277,0,0,0,0,0,0,0,0,0,0,0,0,0,0,0,0,0,0,0,0
"CH_SOP",2015-08-04,"Sopen","FOREL","Switzerland",47.0899,8.080633333,596,27,NA,2.6,10,5.61,23.34,18.39,0.09,1.4,0.137,0.36,12.237,11.181,4.055,0.846,0,0,0,0.294,0,0,0,0,0,0.04,0.0725,0,0.1148,0.0148,0,0,0,0,0,0
"CH_ZUR",2015-08-18,"Zurich","FOREL","Switzerland",47.32166667,8.565,406,143,49,4.7,15,12.15,22.95,18.58,0.03,0.6,0.283,NA,NA,7.598,0,0,0,0,0,0,0,0,0,0,0,0.191,1.0311,0,0.3319,0,0,0,0,0,0,0
"CY_AKA",2015-06-24,"Akaki_Malounda","AQUA-CY","Cyprus",35.03,33.17,398,28,11,0.3,8,1.29,24.59,24.25,0.18,0.6,0.379,0.05,10.984,3.474,0.546,0.212,0,0,0,0.104,0.333,0.322,0,0,0,0,0,0,0,0,0,0,0,0,NA,0
"CY_ASP",2015-06-10,"Asprokremmos Reservoir","AQUA-CY","Cyprus",34.73955556,32.55866667,80,43,23,2.7,16,6.27,23.49,22.29,0.25,0.5,0.121,0.02,34.957,1.083,0.167,0,0,0,0,0,0,0,0,0,0,0,0,0,0,0,0,0,0,0,0,0
"CY_KAN",2015-06-09,"Kannaviou Reservoir","AQUA-CY","Cyprus",34.92888889,32.58938889,414,44,19.5,7.35,39,37.48,22.08,19.57,0.05,0.1,0.037,NA,4.672,5.965,1.071,0.696,0,0,0,0,0,0,0,0,0,0,0,0,0,0,0,0,0,0,0,0
"CY_KOU",2015-06-11,"Kouris Reservoir","AQUA-CY","Cyprus",34.74636111,32.92194444,247,91,36,3.5,35,25.48,22.94,20.74,0.11,0.6,0.568,NA,7.496,2.966,0.268,0.157,0,0,0,0,0.693,0.63,0,0,0,0,0,0,0,0,0,0,0,0,0,0
"CY_POL",2015-06-17,"Polemidia","AQUA-CY","Cyprus",34.72,32.99,136,26,11.7,3.7,16.5,0.75,25.69,24.28,0.19,0.6,0.034,0.02,75.518,1.506,0.229,0,0,0,0,0,0,0,0,0,0,0,0,0,0,0,0,0,0,0,0,0
"CZ_BOS",2015-07-13,"Boskovice","RECETOX","Czech Republic",49.496334,16.696983,430,33,NA,4.4,7,5.72,22.01,18.52,0.19,1.3,0.919,0.04,4.679,0.72,0,0,0,0,0.165,0.131,0,0.269,0,0,0,0.005,0,0.026,0.0017,0.0113,0,0,0,0,0,0
"CZ_BRN",2015-07-09,"Brnenska prehrada","RECETOX","Czech Republic",49.237133,16.511232,225,24,NA,3.04,13,4.71,22.77,20.58,0.15,2.3,1.938,0.23,13.9,2.511,0.599,0,0,0,0,0,0,0,0,0,0,0.006,0.0512,0.0686,0.0054,0.0228,0,0,0,0,0,0
"CZ_HAM",2015-07-15,"Hamry","RECETOX","Czech Republic",49.737267,15.914233,592,12,NA,1.49,5.5,3.47,19.96,18.44,0.08,0.9,0.189,0.09,5.299,17.047,0.938,0.548,0,0.532,0,0.231,0,0.283,0,0,0.96,0.002,0,0.0469,0.0028,0.0169,0,0,0,0,0,0
"CZ_LET",2015-07-13,"Letovice","RECETOX","Czech Republic",49.554466,16.555149,330,27,NA,2.15,8,6.08,22.75,20.99,NA,4.1,2.262,0.02,NA,8.365,0.598,0.607,0,0.713,0,0,0,0.437,0,0,0,0.002,0,0.0373,0.0024,0.0183,0,0,0,0,0,0
"CZ_LUH",2015-07-09,"Luhacovice","RECETOX","Czech Republic",49.121517,17.774866,280,13,NA,0.8,4,3.89,24.1,22.61,0.05,0.4,NA,NA,NA,54.5,0,0.954,2.761,0,0,0.463,0,8.914,0,0,0,0.002,0,0,0,0,0,0,0,0,0,0.0836
"CZ_MAT",2015-07-15,"Matejovsky","RECETOX","Czech Republic",49.535168,15.882933,562,5,NA,0.75,3,NA,20.62,20.5,0.04,1.3,0.038,0.08,7.817,23.197,2.969,1.146,0,0,0,1.208,0,0.787,0,0,0,0.065,0,0.1211,0.0076,0.105,0,0,0,0,0,0.0016
"CZ_MOS",2015-07-20,"Mostiste","RECETOX","Czech Republic",49.395866,16.015217,459,31,NA,3.5,5,4.38,23.86,23.33,NA,4.6,3.562,0.03,NA,10.176,0,0.673,0,0,0,0.114,0,0.391,0,0,0,0.039,0.0287,0.1261,0.0203,0.3512,0.0076,0,NA,0,0,0
"CZ_NES",2015-07-07,"Nesyt","RECETOX","Czech Republic",48.77795,16.742849,175,6,NA,0.32,3,0.75,22.37,21.41,0.33,0.6,NA,0.01,114.85,69.385,6.712,3.03,0,0,0,0,0,0,0,0,0,0,0,0,0.0151,0,0,0,0,0,0,0.0056
"CZ_NML",2015-07-07,"Nove Mlyny II","RECETOX","Czech Republic",48.893284,16.643499,167,5,NA,0.5,3,0.75,24.67,22.29,0.22,1,0.01,0.08,184.832,46.067,6.808,1.996,0,1.402,0,1.533,0,1.109,0,0,0,0.002,0,0,0,0.0191,0,0,0,0,0,0.0011
"CZ_NOV",2015-07-07,"Novovesky","RECETOX","Czech Republic",48.934191,16.529216,178,8,NA,0.18,2,0.75,23.36,21.83,0.23,1.4,0.516,0.24,62.984,0.614,0,0.974,0,0,0,0.112,0,0,0,0,0,0,0,0,0,0,0,0,0,0,0,0
"CZ_VDA",2015-07-15,"Velke Dako","RECETOX","Czech Republic",49.632233,15.90435,614,3,NA,0.4,2,NA,18.9,18.88,0.05,0.4,NA,NA,7.349,55.674,4.607,8.744,0,0,0,0,0,0,0,0,0,0.002,0,0,0.0283,0,0,0,0,0,0,0
"DE_BIKO",2015-09-02,"Bikowsee","IGB","Germany",53.14811,12.8870556,53,3,2.5,0.7,2.5,0.84,21.62,20.87,0.03,1.4,0.018,0.02,NA,37.356,1.162,2.239,2.211,0,0,0,0,0,0,0,0,0.044,0,0,0.0237,0,0,0,0,0,0.0179,0
"DE_CARWI",2015-08-13,"Carwitzersee","IGB","Germany",53.315693,13.452971,84,30,9.2,0.9,10,7.96,22.09,18.3,0.08,0.9,0.011,0.03,4.67,2.083,0.176,0,0,0,0,0,0,0.194,0,0,0,0.002,0,0,0.0028,0,0,0,0,0,0,0
"DE_CON",2015-08-04,"Constance","Ukon","Germany",47.75788,9.12617,395,251,100,6.7,20,NA,20.16,16.05,0.04,1.1,0.5,0.02,NA,1.805,0,0,0,0,0,0,0,0.123,0,0,0,0,0,0,0,0,0,0,0,0,NA,NA
"DE_DABEL",2015-09-07,"Grosser Dabelowsee","IGB","Germany",53.254358,13.204838,60,3,2.3,0.9,2.5,NA,17.95,17.83,0.02,0.3,NA,0.11,NA,19.59,1.181,0.83,0,0,0,0,0,0,0,0,0,0,0,0,0,0,0,0,0,0,0.0422,0
"DE_DAGOW",2015-07-09,"Dagowsee","IGB","Germany",53.151,13.0531111,60,10,5,0.9,8,5.05,21.01,15.83,0.08,NA,0.023,0.03,NA,9.448,1.056,0,0,0,0,0,0,0,0,0,0,0.018,0.3308,0,0.0521,0,0,0,0,0,0.1647,0
"DE_DOLLGE",2015-08-22,"Dollgenesee","IGB","Germany",52.60658,14.1712222,10,29,8.8,1.12,12,9.67,22.78,15.03,0.02,1,0.03,0.03,6.363,3.672,0.593,0,0,0.391,0,0,0,0.248,0,0,0,NA,NA,NA,NA,NA,NA,NA,NA,NA,NA,NA
"DE_DOMJU",2015-09-07,"Domjuchsee","IGB","Germany",53.329786,13.130422,64,5,3.5,1.2,3.5,NA,19.17,18.97,0.03,NA,0.013,0.03,NA,2.607,0.577,0,0,0,0,0,0,0,0,0,0,0,0,0,0,0,0,0,0,0,0,0
"DE_ELLEN",2015-09-04,"Ellengowsee","IGB","Germany",53.213974,13.028633,55,17,NA,1.45,8.5,6.29,19.99,17.58,NA,NA,NA,NA,11.674,NA,NA,NA,NA,0,0,0,0,0,0,0,0,0.024,0.1386,0,0.0212,0,0,0,0,0,0.0656,0.0083
"DE_FUIRS",2015-09-07,"Fuirstensersee","IGB","Germany",53.316546,13.163811,55,10,4.3,1.7,10,8.93,18.46,17.72,NA,NA,0.044,0.15,11.53,1.313,0,0,0,0,0,0,0,0,0,0,0,0,0,0,0,0,0,0,0,0,NA,0
"DE_FUKUNE",2015-09-03,"Fukuschkule","IGB","Germany",53.10569,12.9849444,55,6,3.5,0.25,4.5,1.53,19.17,13.92,NA,1.9,NA,0.06,18.043,14.828,1.322,0,0,0,0,0.39,0,0,0,0,0,0,0,0,0,0,0,0,0,0,NA,0
"DE_KLEIN",2015-09-01,"Kleiner Wentowsee","IGB","Germany",53.07803,13.1714444,48,2,NA,0.6,2,NA,22.55,22.24,0.08,0.7,0.007,0.02,5.147,67.465,7.696,3.487,2.034,0.902,0,2.277,7.003,6.37,0,0,0,0.002,0,0.0946,0,0.0262,0,0,0,0,0.0202,0.21
"DE_LABUS",2015-09-04,"Labusee","IGB","Germany",53.20386,12.8755,58,10,4.3,0.6,10,7.71,19.83,17.07,0.04,NA,NA,NA,NA,4.891,0,0.461,0,0,0,0,0,0,0,0,0,0.002,0,0,0.0092,0,0,0,0,0,0.0352,0.0041
"DE_LAN",2015-07-27,"LangerSee","BTU","Germany",52.2445,13.78544444,NA,NA,NA,0.4,3,NA,21.39,21.39,0.1,0.6,NA,0.03,7.844,84.388,9.72,2.036,0.765,1.757,0,1.828,2.132,2.963,0,0,0,0.009,0.1884,0,0.0202,0,0,0,0,0,0.0744,0.624
"DE_MUGGE",2015-08-25,"Muggelsee","IGB","Germany",52.441171,13.657738,32,8,4.9,0.6,6.5,NA,21.93,21.95,0.1,1.1,0.023,0.08,29.77,1.525,0,0,0,0,0,0,0,0.299,0,0,0,0.002,0,0.0424,0.0028,0.0385,0,0,0,0,0,0
"DE_OBER",2015-08-07,"Oberuckersee","IGB","Germany",53.174916,13.856108,18,28,8.3,3.5,11,10.69,24.53,18.32,0.04,0.3,0.032,0.05,5.977,2.702,0.228,0,0,0,0,0,0,0,0,0,0,0.002,0,0,0.0028,0.0115,0,0,0,0,0,0
"DE_PEETS",2015-08-16,"Peetschsee","IGB","Germany",53.237915,12.861389,6,30,NA,0.67,15,10.3,23.77,16.39,0.02,0.1,NA,0.09,5.404,3.314,0.588,0.482,0,0,0,0,1.642,1.55,0,0,0,0,0.047,0,0.0028,0,0,0,0,0,0.0142,0.0047
"DE_PFSAR",2015-09-07,"Pfsarrsee","IGB","Germany",53.28372,13.1958611,NA,5,3,0.69,5,4.91,18.42,17.72,0.02,0.3,0.008,0.04,NA,34.29,2.207,2.465,0,0,0,0,0,0,0,0,0,0.015,0.3318,0,0.0199,0,0,0,0,0,0.1833,0.0157
"DE_PLA",2015-08-19,"Plauersee","IGB","Germany",53.487471,12.349336,62,20,6.8,1.28,15,16.51,21.51,18.98,0.06,1.7,0.019,0.13,6.131,2.023,0.196,0,0,0,0,0,0,0,0,0,0,0.002,0.0293,0,0,0,0,0,0,0,0,0
"DE_PLATI",2015-08-31,"Platinsee","IGB","Germany",53.22458,12.9802778,55,35,9,3.2,11,7.83,20.18,17.64,0.04,NA,0.012,0.03,NA,0.598,0,0,0,0,0,0,0,0,0,0,0,0.002,0,0,0.0028,0,0,0,0,0,0.0171,0
"DE_PREBE",2015-09-15,"Prebelowsee","IGB","Germany",53.176337,12.881906,NA,NA,NA,0.7,2.5,NA,21.29,21.28,0.04,0.7,0.029,NA,6.129,5.39,0.858,0,0,0,0,0.347,0,0.268,0,0,0,0,0,0,0,0,0,0,0,0,9e-04,0
"DE_ROBLI",2015-08-31,"Roblinsee","IGB","Germany",53.183187,13.116817,53,6,4.5,0.69,4.5,1.09,24.91,21.04,NA,NA,0.014,0.02,8.453,2.723,0.401,0,0,0,0,0,0,0,0,0,0,0,0,0,0,0,0,0,0,0,0.0011,0
"DE_ROOFE",2015-09-01,"Roofensee","IGB","Germany",53.11067,13.0350222,NA,NA,NA,0.7,8,7.77,22.5,19.91,0.02,0.7,0.051,0.03,4.364,1.651,0.146,0,0,0,0,0,0,0,0,0,0,0.002,0,0,0.0028,0.0557,0,0,0,0,0,0
"DE_SCH",2015-07-20,"Scharmutzelsee","BTU","Germany",52.21683,14.0235,NA,NA,NA,1.1,6,10.18,21.72,21.04,0.08,0.5,NA,0.03,6.235,3.384,0.266,0.775,0,0,0,0,0,0.223,0,0,0,0,0,0,0.0027,0,0,0,0,0,0.0013,8e-04
"DE_SCHAM",2015-08-27,"Scharmutzelsee","IGB","Germany",52.284163,14.052641,NA,NA,NA,0.85,17,8.36,21.5,16.87,NA,0.7,NA,NA,23.429,8.689,0.388,1.019,0,0,0,0,0,0,0,0,0,0.117,0.6541,0,0.095,0,0,0,0,0,0,0
"DE_SCHLA",2015-09-02,"Schlabornsee","IGB","Germany",53.151814,12.867381,56,9,5.5,0.7,4.5,4.64,21.69,21.29,NA,0.3,NA,0.02,7.978,9.04,0.655,0.643,0,0,0,0,0,0,0,0,0,0,0.1803,0,0.0104,0,0,0,0,0,0.0987,0.0044
"DE_SCHWO",2015-08-31,"Schwedtsee","IGB","Germany",53.18828,13.1496111,52,4,2.5,0.67,2.5,0.75,23.65,21.49,0.06,0.5,0.009,0.02,6.848,1.953,0,2.615,0,0.692,0,0,0,0.463,0,0,0,0.014,0.1921,0,0.0194,0.0145,0,0,0,0,0.388,0.1033
"DE_STAD",2015-09-11,"Stadtsee","IGB","Germany",52.868262,13.837662,NA,NA,NA,0.85,8,7.67,17.5,17.4,NA,NA,NA,NA,NA,NA,NA,NA,NA,NA,NA,NA,NA,NA,NA,NA,NA,NA,NA,NA,NA,NA,NA,NA,NA,NA,NA,NA
"DE_STE",2015-08-11,"Stechlinsee","IGB","Germany",53.154031,13.026104,60,68,22.8,8.5,14,9.34,21.96,16.69,0.06,NA,NA,0.02,NA,0.692,0.075,0,0,0,0,0,0,0,0,0,0,0,0,0,0.0058,0,0,0,0,0,0,0
"DE_STOLP",2015-08-31,"Stolpsee","IGB","Germany",53.17497,13.2085,NA,NA,NA,0.6,6.5,0.75,22.5,20.48,0.05,NA,0.008,NA,37.051,106.212,5.485,7.705,0,0,0,0.677,1.676,1.08,0,0,0,0,0.2123,0,0.0121,0,0,0,0,0,0.1993,0.0887
"DE_TIWAR",2015-08-20,"Tiwarensee","IGB","Germany",53.527362,12.691713,NA,NA,NA,2.2,15,9.33,21.97,16.61,0.07,4.4,0.016,0.13,22.293,0.916,0,0,0,0,0,0,0,0,0,0,0,0,0,0,0,0,0,0,0,0,0,0
"DE_WANKA",2015-08-24,"Wanzkaersee","IGB","Germany",53.40845,13.249775,NA,NA,NA,0.92,12,7.72,20.83,13.59,NA,3.2,1.137,0.2,17.117,0.84,0,0,0,0,0,0,0,0,0,0,0,0.013,0,0.1274,0.0114,0.061,0,0,0,0,0.0062,0.0109
"DE_WENDO",2015-09-01,"Grosser Wentowsee","IGB","Germany",53.05308,13.2531111,48,4,2.8,0.4,2,1.73,23.52,22.68,0.04,NA,0.024,0.04,NA,59.959,3.682,8.618,0,0,0,0.549,0,1.036,0,0,0,0,0,0,0,0,0,0,0,0,0.0143,0
"DE_WITTWE",2015-09-03,"Wittwesee","IGB","Germany",53.12653,12.9364167,NA,NA,NA,2.62,12,7.47,21.11,19.77,0.05,0.4,0.005,0.03,4.336,1.256,0,0,0,0,0,0,0,0,0,0,0,0.002,0,0,0,0.0093,0,0,0,0,0.0036,0
"DE_WURIS",2015-09-11,"Wurlsee","IGB","Germany",53.22131,13.2936111,NA,NA,NA,1.45,8,7.67,17.5,17.4,0.05,2.2,3.492,0.32,17.333,1.357,0,0,0,0,0,0,0,0,0,0,0,0,0,0,0,0,0,0,0,0,NA,0
"DK_BAG",2015-08-26,"Bagsvaerd ","TWP-UOC","Denmark",55.77266667,12.45663889,19,4,2,0.6,2.5,NA,19.2,19.17,0.03,0.3,NA,0.03,5.668,61.24,8.043,14.914,0,3.741,0,0.87,1.238,1.378,0,0,1.344,0.059,0,0.1365,0.0095,0.1327,0,0,0,0,0.0054,0.002
"DK_BAS",2015-08-25,"Bastrup ","TWP-UOC","Denmark",55.81802778,12.2695,29,7,3.5,1.8,5.5,2.75,20.5,20.08,0.04,0.5,NA,NA,21.29,16.437,1.108,0.371,0.553,0.74,0,0.352,1.915,1.569,0,0,0,0.009,0,0.0301,0.0023,0.0186,0,0,0,0,0,0.0026
"DK_FAR",2015-08-25,"Farum ","TWP-UOC","Denmark",55.80522222,12.36719444,20,15,6.3,1.2,10,14.24,19.7,19.1,0.03,0.5,NA,0.27,94.748,27.688,0,0,2.171,0,0,0.225,6.892,6.774,0,0,0,0.002,0,0,0,0,0,0,0,0,0,0
"DK_FUR",2015-08-26,"Fure","TWP-UOC","Denmark",55.81305556,12.44313889,24,38,13.5,1.05,2.5,NA,18.7,18.7,0.11,0.4,0.008,0.06,10.658,80.107,1.593,0,1.197,0,0,0.752,4.137,2.504,0,0,0,0.061,0,0.0544,0.0067,0.067,0,0,0,0,0,0
"DK_GYR",2015-08-12,"Gyrstinge ","TWP-UOC","Denmark",55.50308333,11.69452778,21,10,NA,0.7,5.5,4.22,21.8,21.03,NA,0.5,NA,0.09,5.028,28.982,1.348,0.93,0,0.981,0,0,0,0.442,0,0,0,0.015,0,0.185,0.0309,0.0682,0,0,0,0,0.1816,0.3476
"DK_HAR",2015-08-12,"Haraldsted ","TWP-UOC","Denmark",55.48463889,11.76422222,17,11,5,1.05,3.5,8.7,21.2,20.79,0.06,0.2,NA,0.02,10.26,32.318,1.657,0,0,0,0,0.28,0,0,0,0,0,0.034,0,0.6326,0.0147,0.3452,0,0,0,0,0.0109,0.2936
"DK_LYN",2015-08-31,"Lyngby ","TWP-UOC","Denmark",55.77472222,12.47911111,19,3,1.6,0.45,2.5,NA,19.5,19.28,0.02,0.6,NA,NA,7.161,112.608,10.719,17.76,0.983,4.066,0,0.493,0.912,1.579,0,0,0,0.025,0,0.0529,0.0392,0.0364,0,0,0,0,0.0133,0.1744
"DK_SLA",2015-08-26,"Slaen","TWP-UOC","Denmark",56.12325,9.615833333,24,12,7.3,4.1,9,6.89,17.2,15.71,0.09,NA,NA,NA,9.146,3.759,0.404,0,0,0,0,0,0.368,0.199,0,0,0,0.002,0,0,0.0066,0,0,0,0,0,0,0
"EE_ELI",2015-07-25,"Elistvere","EULS","Estonia",58.57116667,26.71133333,60,4,2,1.5,1.5,NA,19.99,19.64,0.07,0.7,0.012,0.04,NA,3.336,0,0.208,0,0.269,0,0.628,0,0.33,0,0,0.161,0.025,0,0.0169,0.0062,0.0695,0,0,0,0,0,0
"EE_KAI",2015-07-25,"Kaiavere","EULS","Estonia",58.607222,26.676111,51,5,2.8,0.7,4.4,1.23,20.73,19.61,NA,0.6,NA,0.02,NA,13.094,1.062,1.276,0.245,0.802,0,0.139,0.801,0.917,0,0,0,0.008,0,0.0774,0.0188,0.0405,0,0,0,0,0,0
"EE_KUR",2015-07-25,"Kuremaa","EULS","Estonia",58.718181,26.550592,83,13,5.9,2.5,9.7,0.78,19.48,18.75,NA,1,0.054,0.04,NA,5.048,0.602,0.313,0.114,0.671,0,0.558,0.384,0.745,0,0,0,0.014,0.0209,0.0295,0.0087,0.0361,0,0,0,0,0,0
"EE_LAM",2015-08-17,"Lammijarv","EULS","Estonia",58.12,27.575,NA,15,3.8,0.7,6.5,5.74,20.8,20.13,0.04,0.7,0.012,0.02,NA,52.256,5.306,8.808,0,10.91,0,1.562,0,0,8.359,0,3.52,0.018,0,0.2356,0.0257,0.1198,0,0,0,0,0,0.0194
"EE_PEI",2015-08-18,"Peipsi","EULS","Estonia",58.80944444,27.37166667,30,13,8.3,1.9,9.5,NA,19.53,19.35,0.03,NA,0.013,0.02,NA,18.486,14.508,1.56,0,2.029,0.427,0.701,0.086,0,0.293,0,0.19,0.017,0,0.1869,0.0221,0.1026,0,0,0,0,0,7e-04
"EE_RAI",2015-07-25,"Raigastvere","EULS","Estonia",58.588889,26.655,57,5,3.2,0.65,3.6,NA,20.05,19.5,0.04,0.4,0.01,0.03,NA,39.304,2.983,5.379,0.85,2.162,0,1.377,0,0,1.676,0,0.675,0.269,0,1.0175,0.0769,1.0917,0,0,0,0,0,0
"EE_SAA",2015-08-12,"Saadjarv","EULS","Estonia",58.53608333,26.64883333,54,25,8,5.17,22.5,3.72,23.32,20.69,0.07,0.7,0.012,0.02,NA,6.638,0.315,0,0,0.968,0,0.263,0,0,0,0,0.153,0.005,0,0,0.0054,0.0225,0,0,0,0,0,0
"EE_VER",2015-08-11,"Verevijarv","EULS","Estonia",58.23161111,26.40577778,54,13,3.5,1.21,9.7,3.8,24,15.52,NA,0.5,0.013,0.02,NA,28.927,3.377,2.169,0.836,1.562,0,0.684,2.321,2.014,0,0,0.756,0.002,0,0,0.0028,0.029,0,0,0,0,0,0
"EE_VOR",2015-08-18,"Vortsjarv","EULS","Estonia",58.21191667,26.10275,33,6,2.8,0.55,4.1,NA,19.4,19.32,0.05,0.7,NA,NA,NA,67.629,0,11.418,12.492,2.987,1.671,0.677,0.854,1.473,0,0,0.895,0.009,0,0.1194,0.0056,0.0333,0,0,0,0,0,0
"ES_ABE",2015-09-08,"Abegondo-Cecebre","UDC","Spain",43.28138889,-8.295,30,18,5.87,1.75,9,10.03,19.97,19.09,0.08,0.8,0.392,0.09,4.858,6.415,1.362,0.303,0,0.368,0,0,0,0.172,0,0,0,0.003,0,0.058,0.1422,3.6829,0.0355,0.446,NA,0,0,0
"ES_ALBUF",2015-08-05,"Albufera de Valencia","UV-EBRO","Spain",39.34433333,-0.338916667,1,1,1,0.35,0.4,NA,29.8,29.8,0.13,0.7,0.006,0.04,93.946,91.584,4.407,12.607,0,0,0,0.928,0,0,0,0,0,0.002,0,0,0,0.053,0,0,0,0,0.2488,0
"ES_ALC",2015-09-03,"Alcantara","URS","Spain",39.73423056,-6.878894444,218,117,30.4,1.1,12,12.44,24.23,23.61,NA,0.3,0.015,0.07,54.634,11.728,0,0,0,0,0,0,0,0,0,0,0,0.195,0,0.1175,0.0171,0.3049,0,0,0,0,0,0.0436
"ES_ARC",2015-09-18,"Embalse de Arcos de la Frontera","UCA","Spain",36.75222222,-5.793888889,65,8,4,0.78,6,NA,23.6,23.6,0.02,0.6,NA,0.02,25.832,21.385,1.253,0,0.388,3.164,0,0,0,1.277,0,0,0,0.002,0,0,0.0028,0.0142,0,0,0,0,0,4e-04
"ES_AZU",2015-08-21,"Azutan","URS","Spain",39.77533611,-5.088780556,357,37,9.04,1.12,9,1.88,27.33,26.7,0.5,1.5,0.069,0.63,450.441,25.38,4.313,4.431,0,1.165,0,1.657,0,0.942,0,0,0.455,0,0,0,0,0,0,0,0,0,0,0
"ES_BAE",2015-08-13,"La Baells","URS","Spain",42.135878,1.872081,630,94,30.02,4.01,10,27.32,24.72,23.98,0.02,NA,0.126,0.02,4.308,1.229,0,0.213,0,0,0,0,0.157,0.122,0,0,0,0,0,0,0,0,0,0,0,0,0,0
"ES_BAX",2015-09-10,"Baxe reservoir","UDC","Spain",42.60694444,-8.616111111,122,NA,NA,2.75,9,12.95,19.88,19.38,0.09,0.7,0.192,0.17,4.762,2.071,0.599,0.265,0,0,0,0,0,0.086,0,0,0,0,0,0,0.0028,0.0086,0,0,0,0,0,0
"ES_BOA",2015-08-10,"Boadella","URS","Spain",42.348167,2.821567,161,54,16.6,2.76,13,14.55,26.03,23.9,0.03,0.1,0.011,0.02,NA,1.648,0.44,0.28,0,0,0,0.095,0,0,0,0,0,0,0,0,0,0,0,0,0,0,0,0
"ES_BRS",2015-08-20,"Branas","IDL-UL","Spain",43.3476,-8.260439,11,4,3.65,NA,2,2.75,18.62,17.8,0.1,1.9,0.608,0.05,14.494,0.715,1.054,1.567,0,0.401,0,0,0,0,0,1.567,0,0,0,0,0,0,0,0,0,0,0,0
"ES_BSP",2015-09-02,"Basturs petit","UBCAT","Spain",42.14402778,1.016833333,632,6,NA,6.12,5,4.72,18.94,17.63,0.03,1,0.41,0.11,5.139,0.862,0.086,0,0,0,0,0,0,0,0,0,0,0,0,0,0,0,0,0,0,0,0,0
"ES_BST",2015-09-02,"Basturs","UBCAT","Spain",42.14327778,1.020361111,636,12,NA,3.93,5,8.22,25.26,25.18,0.03,0.7,0.054,0.24,28.52,3.626,0.251,0,0,0.472,0,0,0,0.266,0,0,0.212,0,0,0,0,0,0,0,0,0,0,0
"ES_CAM",2015-08-22,"Laguna Camarones","UMA","Spain",36.67291944,-4.4558,3,1,NA,1,0.5,NA,30,30,0.23,9.7,NA,0.19,597.087,177.524,0,0,4.71,31.494,0,0,0,25.856,0,0,0,0,0.411,0,0,0,0,0,0,0,0,0
"ES_CAN",2015-08-22,"Laguna Canas","UMA","Spain",36.67293333,-4.455225,1,1,NA,0.5,0.5,NA,28.98,28.98,0.29,5.5,NA,NA,NA,151.82,84.286,18.459,0,0,0,0,0,0,0,0,0,0,0,0,0,0,0,0,0,0,0,0
"ES_CED",2015-09-08,"Cedillo","URS","Spain",39.66731111,-7.532625,115,50,18.6,1.2,5,8.71,25.02,22.55,0.03,0.3,0.007,0.02,NA,49.622,4.264,1.573,0,0.595,0,0.368,0,0.367,0,0,0,0.152,0.0747,1.523,0.055,1.3347,NA,NA,NA,0,0,0.1796
"ES_CON",2015-09-17,"As Conchas","UDC","Spain",41.96833333,-7.982777778,551,NA,NA,1.5,4,NA,17.72,17.52,0.08,0.5,0.036,NA,NA,20.695,0.515,1.214,0.348,0.615,0,0.356,0.282,0.507,0,0,0,0,0,0,0,0,0,0,0,0,0,0
"ES_COS",2015-08-22,"Laguna Costera","UMA","Spain",36.67110278,-4.452469444,2,1,0.5,0.5,0.2,NA,30.54,30.54,NA,5,0.097,1.12,1044.228,1.384,0,0,0,0,0,0,0,0,0,0,0,0,0,0,0,0,0,0,0,0,0,0
"ES_CUB",2015-07-29,"Embalse del Cubillas","UGR","Spain",37.2787,-3.675683333,646,12,NA,0.57,2.8,5.73,26.2,25.8,0.05,2.5,1.12,0.05,NA,4.216,0.991,0.983,0,0,0,0,0,0,0,0,0,0,0,0,0,0,0,0,0,0,0,0
"ES_DNS",2015-08-20,"Doninos","IDL-PT","Spain",43.491886,-8.312181,6,11,5.1,1.43,7,6.47,21.4,20.58,0.02,2,NA,0.06,NA,2.911,0.287,0.093,0,0,0,0.086,0,0.08,0,0,0,0,0,0.0149,0.0028,0.0041,0,0,0,0,0,0
"ES_ESC",2015-08-22,"Laguna Escondida","UMA","Spain",36.67493611,-4.460111111,2,1,NA,0.5,0.3,NA,29.05,29.05,0.14,2.6,NA,0.02,154.228,NA,NA,NA,NA,3.852,0,0,0,1.205,0,0,0,0,0,0,0,0,0,0,0,0,0,0
"ES_ESC2",2015-07-24,"Embalse de Escalona","UVCAV","Spain",39.12833333,-0.698611111,112,25,NA,4.4,11,10.74,30.24,23.87,NA,NA,NA,NA,NA,0.833,0,0.24,0,0,0,0,0,0,0,0,0,NA,NA,NA,NA,NA,NA,NA,NA,NA,NA,NA
"ES_EUC",2015-08-22,"Laguna Eucaliptal","UMA","Spain",36.671994,-4.452602,1,1,0.5,0.5,0.1,NA,29.41,29.41,0.15,5.1,0.088,0.26,738.184,447.93,0,81.011,0,0,0,0,0,0,0,0,0,NA,NA,NA,NA,NA,0,0,0,0,NA,NA
"ES_FOI",2015-08-14,"El Foix","URS","Spain",41.255951,1.6490111,102,10,5.5,0.46,7.5,5.97,29.93,26.29,0.27,1.8,NA,1.24,253.601,82.706,1.629,1.702,0,0,0,0,0,0,0,0,0,0,0,0,0,0,0,0,0,0,0,0
"ES_FOR",2015-09-09,"As Forcadas Reservoir","UDC","Spain",43.61222222,-8.085833333,227,NA,NA,2.25,7,NA,18.79,18.78,0.07,0.6,0.043,0.03,NA,12.55,1.02,0.33,0.133,0.765,0,0.14,0,0.389,0,0,0,0.003,0,0.0701,0.0207,0.6187,0,0.0522,0,0.0075,0,0
"ES_GRA",2015-08-22,"Laguna Grande","UMA","Spain",36.67131,-4.45601,1,1,0.5,0.5,0.2,NA,28.81,28.81,0.26,1.8,0.011,0.15,171.26,932.883,434.286,89.806,0,0,0,0,0,0,0,0,8.686,NA,NA,NA,NA,NA,0,0,0,0,NA,NA
"ES_GRA2",2015-07-23,"Laguna Grande de Villafranca","UVCAV","Spain",39.44975,-3.338555556,643,1,0.8,1,5,NA,26.5,26.38,0.03,2.9,0.959,0.02,34.427,1.794,0,0,0,0,0,0,0,0.141,0,0,0,0,0,0.0056,0,0,0,0,0,0,0,0
"ES_HON",2015-07-23,"Laguna Honda","UGR","Spain",36.75555,-2.9464,13,3,1.1,0.2,1.8,1.75,31.8,31.23,0.08,3.9,0.025,0.32,28.182,103.453,38.876,1.591,8.302,0,0,4.407,1.383,0,0,0,4.712,0.018,0,0,0,0.1301,0,0,0,0,0.0017,0
"ES_MEQ",2015-08-03,"Mequinenza Reservoir","UV-EBRO","Spain",41.37067,0.2675556,119,60,20,4.3,12,10.48,27.7,26.35,0.04,2.1,1.242,0.02,24.251,3.154,0.756,0.538,0,0,0,0,0,0,0,0,0,0,0,0,0,0,0,0,0,0,0,0
"ES_MNT",2015-09-03,"Montcortes","UBCAT","Spain",42.331207,0.994539,1020,26,NA,7.96,5,8.41,22.85,22.8,0.08,0.8,0.02,0.06,NA,9.891,0.183,0.532,0.968,0.199,0,0.298,1.893,1.527,0,0,0,0.002,0,0,0,0,0,0,0,0,0,0
"ES_RIB",2015-08-04,"Ribarroja Reservoir","UV-EBRO","Spain",41.24938889,0.429194444,70,34,10.3,3.5,9,7.5,25.4,25.07,0.03,2.2,1.419,0.04,25.743,9.634,2.359,1.096,0,0,0,0.209,0,0.217,0,0,0,0,0,0,0,0.0042,0,0,0,0,0,0
"ES_RIO",2015-08-22,"Laguna Rio Viejo","UMA","Spain",36.67361944,-4.455016667,14,1,0.5,0.5,0.2,NA,26.21,26.21,0.82,5.3,0.075,0.95,1285.624,197.926,111.781,10.501,0,0,0,0,0,0,0,0,0,0,0,0,0,0,0,0,0,0,0,0
"ES_SAU",2015-08-11,"Sau","URS","Spain",41.97005,2.410655556,362,75,26.4,1.47,20,20.06,27.99,22.54,NA,0.8,0.23,0.22,7.894,3.387,1.009,0.402,0,0.333,0,0,0,0.146,0,0,0,0,0,0,0,0,0,0,0,0,0,0
"ES_SBD",2015-08-20,"Sobrado","IDL-UL","Spain",43.037611,-8.009558,514,5,1.53,0.59,2,1.82,20.2,19.63,0.04,NA,NA,NA,8.547,20.254,1.999,1.289,2.794,0,0,0.705,0,0,0,0,0,0,0,0,0,0,0,0,0,0,0,0
"ES_SOB",2015-07-29,"Sobron Resrbvoir","UV-EBRO","Spain",42.76691944,-3.102138889,511,33,7,2.3,6,5.49,23.07,22.78,0.08,0.2,0.247,0.03,5.362,12.166,0.694,0.913,0,1.142,0,0.852,0,0.696,0,0,0,0,0,0,0,0,0,0,0,0,0,0
"ES_SUR",2015-08-22,"Laguna Sur","UMA","Spain",36.67098889,-4.452725,1,1,0.5,0.5,0.1,NA,28.8,28.8,0.2,4.9,NA,0.9,1022.921,0,0,0,0,0,0,0,0,0,0,0,0,0,0,0,0,0,0,0,0,0,0,0
"ES_TOU",2015-07-24,"Embalse de Tous","UVCAV","Spain",39.13372222,-0.647388889,136,30,NA,5.3,13.25,15.69,28.94,25.15,0.02,1.6,0.756,NA,28.596,0.165,0,0,0,0,0,0,0,0,0,0,0,0,0,0,0,0,0,0,0,0,0,0
"ES_VAL",2015-09-07,"Valdecanas","URS","Spain",39.77873333,-5.6054,317,80,19.81,1.1,14,NA,25.24,24.34,0.03,1.3,0.763,0.02,7.775,58.93,0,0.894,0,0,0,0.599,0,0.312,0,0,0,0.007,0,0.1143,0.0125,0.3204,0,0,0,0.0071,0.0014,0.2832
"ES_VALL",2015-08-12,"Vallfornes","URS","Spain",41.72095,2.341644444,519,59,20.2,0.96,10,9.25,24.61,21.73,0.04,0.2,0.04,0.02,NA,13.591,0,0.294,0,0,0,0.251,0,0.135,0,0,0,0,1.8139,0,0,0,0,0,0,0,0,0
"ES_YEG",2015-07-21,"Laguna de las Yeguas","UGR","Spain",37.05641667,-3.379533333,2886,11,NA,10.5,10,8.73,14.8,14.47,0.07,0.5,0.059,0.02,NA,0.033,0,0,0,0,0,0,0,0,0,0,0,0,0,0,0,0,0,0,0,0,0,0
"FI_HAR",2015-08-13,"Harkmerifjarden","ABO","Finland",62.18833333,21.43888889,0,2,NA,0.6,0.7,NA,19.3,19.23,0.02,0.4,0.017,0.02,NA,8.804,1.49,0.574,0,0,0,0,0,0,0,0,0,0,0,0,0,0,0,0,0,0,0,0
"FI_JJ",2015-08-13,"Jyvasjarvi","JYRASKYLA","Finland",62.23918889,25.77259167,NA,25,5.8,1.8,5,9.38,20.6,20.09,0.05,0.8,0.021,NA,4.446,5.249,0,0,0,0,0,0,0,0,0,0,0,0.002,0,0.0169,0.0035,0.0052,0,0,0,0,0,0
"FI_KAK",2015-08-05,"Kakskerranjarvi","ABO","Finland",60.355,22.20833333,7,15,6.38,3.1,10,10.8,19.5,18.17,0.12,0.2,0.019,NA,5.041,2.928,0.283,0,0,0.124,0,0,0,0,0,0,0,0,0.0764,0,0.0024,0,0,0,0,0,0,0
"FI_LIT",2015-08-05,"Littoistenjarvi","ABO","Finland",60.45138889,22.39527778,36,3,2.03,0.7,2,NA,19.6,19.5,0.03,0.4,0.011,NA,NA,60.352,2.763,7.89,1.427,0.749,0,1.117,0,0,0,0,0,0.002,0,0.3288,0.0975,0.1839,0,0,0,0,0,0
"FI_MJ",2015-08-20,"Muuratjarvi","JYRASKYLA","Finland",62.12474444,25.56038889,NA,38,NA,3.8,6,9.35,19.6,18.95,0.08,0.6,0.095,0.02,3.368,1.36,0,0,0,0,0,0,0,0.113,0,0,0,0,0,0,0,0,0,0,0,0,0,NA
"FI_STO",2015-08-13,"Stortrasket","ABO","Finland",62.31777778,21.38027778,7,2,NA,0.9,1.5,NA,19.8,19.75,0.03,0.3,0.01,NA,NA,2.369,0.288,0,0,0,0,0,0,0,0,0,0.045,0,0,0,0,0,0,0,0,0,0,0
"FI_VAN",2015-08-31,"Vanajanselka","LAMMI","Finland",61.14888889,24.27369444,74,24,7.3,2,5,12.49,18.4,18.33,NA,NA,NA,NA,NA,NA,NA,NA,NA,NA,NA,NA,NA,NA,NA,NA,NA,0.009,0,0.1509,0.015,0.0452,0,0,0,0,0,0
"FR_AYD",2015-09-03,"Aydat","LMGE","FR",45.66388889,2.984444444,837,15,NA,2,7,7.11,19.7,18.85,NA,NA,0.017,NA,3.918,8.196,2.509,0.924,0,0,0,0,0,0,0,0,0,0,0,0.0205,0.0027,0.0123,0,0,0,0,0,0
"FR_PAV",2015-09-02,"Pavin","LMGE","FR",45.49583333,2.888333333,1197,92,NA,7.3,18,8.43,18,12.18,0.13,NA,0.011,NA,10.24,0.818,0.135,0.083,0,0,0,0,0,0,0,0,0,0,0,0,0.0028,0,0,0,0,0,0,0
"GR_MAR",2015-10-05,"Marathonas","DIMOKRITOS","Greece",38.17156667,23.90511111,227,54,20,4.5,26,26.55,21.71,20.45,0.05,0.8,0.118,0.18,NA,25.042,0,3.202,1.711,0,0,0.4,0,0,0,0,0,0.024,0,0.0228,0.0017,0.0384,0,0,0,0,0,0
"GR_PRE",2015-09-18,"Lesser Prespa","SPP","Greece",40.76368056,21.09733889,853,9,4.2,2.2,6.8,1.76,25.8,22.95,0.06,1.5,NA,0.02,4.488,9.095,0,0.554,0,0,0,0,0,0,0,0,0,0.031,0,0.228,0.0081,0.1285,0,0,0,0,0,0
"GR_VOL",2015-09-16,"Volvi","AUTH","Greece",40.66705556,23.54194444,37,28,13.5,0.117,13,11.47,26,24.43,0.12,0.9,0.026,0.02,19.236,6.529,0.428,0.377,0,0,0,0,0,0.163,0,0,0,0,0,0,0,0,0,0,0,0,0,0
"HR_BAJ",2015-08-27,"Bajer","ALGEZG","Croatia",45.30633333,14.71333333,717,7,3.5,3,6.5,NA,16.7,13.37,0.02,0.6,1.095,0.08,7.746,0.876,0,0,0,0.238,0,0,0,0,0,0,0,0,0,0,0,0,0,0,0,0,0,0
"HR_BUT",2015-07-21,"Butoniga","ALGEZG","Croatia",45.33186111,13.92322222,43,15,10.5,3.8,9,NA,29.16,23.57,0.04,NA,0.032,0.06,52.168,0.226,0,0,0,0,0,0,0,0,0,0,0,0,0,0,0,0,0,0,0,0,0,0
"HR_KOP",2015-07-23,"Kopacko","HROS","Croatia",45.605,18.85555556,16,5,2,0.17,5.3,NA,34,34,NA,NA,NA,NA,NA,NA,NA,NA,NA,NA,NA,NA,NA,NA,NA,NA,NA,NA,NA,NA,NA,NA,NA,NA,NA,NA,NA,NA
"HR_KOZ",2015-07-23,"Kozjak","ALGEZG","Croatia",44.88997222,15.60408333,535,48,15.5,7.5,14,NA,24.9,19.75,0.07,NA,0.364,0.02,NA,0.192,0,0,0,0,0,0,0,0,0,0,0,0,0,0,0,0,0,0,0,0,0,0
"HR_LES",2015-07-12,"Lesce","ALGEZG","Croatia",45.34781,15.34382,186,52,NA,5,12,NA,27.9,22.94,NA,0.9,0.651,0.06,NA,1.119,0.719,0.385,0,0,0,0,0,0,0,0,0,0,0,0,0,0,0,0,0,0,0,0
"HR_LOK",2015-08-20,"Lokve","ALGERI","Croatia",45.35977778,14.71708333,768,40,NA,7,20,NA,22.3,20.02,NA,0.1,0.312,0.04,NA,1.019,0,0,0,0,0,0,0,0,0,0,0,0,0,0,0.0028,0.0286,0,0,0,0,0,0
"HR_MAL",2015-08-24,"Malo Jezero","ALGEZG","Croatia",45.77836111,15.93516667,112,13,5,4,4,NA,25.9,25.68,NA,0.6,0.945,0.1,NA,0.566,0,0,0,0,0,0,0,0,0,0,0,0,0,0,0,0,0,0,0,0,0,0
"HR_NJI",2015-08-27,"Njivice","ALGEZG","Croatia",45.16963889,14.56338889,2,9,3,5.5,8,NA,26.3,25.04,0.06,0.1,0.029,0.03,NA,7.522,0.637,1.122,0,0,0,0,0,0.163,0,0,0,0,0,0,0,0.0167,0,0,0,0,0,0
"HR_PET",2015-07-31,"Peto Jezero","ALGEZG","Croatia",45.83161111,16.02616667,142,7,4,0.5,5,NA,24.6,23.48,0.05,0.5,0.18,0.1,NA,9.541,0.874,0.874,0.445,0.21,0,0.163,1.486,1.288,0,0,0,0.162,0.0611,1.1152,0.0289,0.6565,0,0,0,0,0,0
"HR_PON",2015-08-27,"Ponikve","ALGEZG","Croatia",45.07794444,14.55833333,17,6,2.4,2,4,NA,28,26.68,0.06,0.8,0.027,0.05,NA,3.906,0.768,0.29,0.171,0,0,0.187,0,0.225,0,0,0,0,0,0,0,0,0,0,0,0,0,0
"HR_PRO",2015-07-23,"Prosce","ALGEZG","Croatia",44.86791667,15.59783333,636,39,11.24,5.5,12,NA,21.7,16.93,NA,NA,0.389,0.03,NA,1.28,0,0,0,0.331,0,0,0,0.117,0,0,0,0,0,0,0,0,0,0,0,0,0,0
"HR_SAK",2015-07-23,"Sakadas","HROS","Croatia",45.6,18.8475,91,12,5.5,0.56,5.3,3.27,33,24.7,NA,NA,NA,NA,NA,NA,NA,NA,NA,NA,NA,NA,NA,NA,NA,NA,NA,NA,NA,NA,NA,NA,NA,NA,NA,NA,NA,NA
"HR_SAV",2015-08-21,"Savica","ALGEZG","Croatia",45.769,16.03244444,115,4,4,1.5,3.5,NA,24.8,24.58,0.03,0.5,0.055,0.07,7.805,10.357,3.541,1.787,0,0.902,0,0.302,0,0.613,0,0,0.204,0,0,0,0,0,0,0,0,0,0,0
"HR_TRI",2015-08-20,"Tribali","ALGERI","Croatia",45.22761111,14.67061111,60,8,4,0.5,4,NA,24.3,24.3,NA,0.2,0.402,0.08,NA,3.67,1.048,0.422,0,0,0,0,0,0,0,0,0,0,0,0,0.0126,0.3606,0,0,0,0,0,0
"HR_VRA",2015-08-28,"Vransko","ALGEZG","Croatia",44.84002778,14.39241667,13,75,50,10.5,15,NA,25.9,23.47,0.05,0.3,0.018,0.03,NA,0.172,0,0,0,0,0,0,0,0,0,0,0,0,0,0,0,0,0,0,0,0,0,0
"HU_PAT",2015-08-07,"Patkai Reservoir","VIZIG","Hungary",47.267605,18.48562,123,NA,NA,0.3,2,0.75,27.5,24.9,0.09,1.9,NA,0.12,12.389,89.916,2.554,11.047,0,0,0,1.381,2.086,0,0,0,0,NA,NA,NA,NA,NA,0,0,0,0,NA,NA
"HU_VEL",2015-08-07,"Velencei","VIZIG","Hungary",47.20636111,18.61386111,NA,2,1.6,0.5,1.5,1.25,27.8,27.38,NA,1.3,NA,0.03,29.167,3.85,0.549,0.295,0.241,0.546,0,0,0,0.215,0,0,0,0.357,0,0.0178,0.0364,1.0537,0,0,0,0,0,0
"HU_ZAM",2015-08-07,"Zamolyi","VIZIG","Hungary",47.30188889,18.46486111,129,NA,NA,0.41,2,1.07,27.4,25.2,0.06,1.2,NA,0.02,11.85,101.459,9.68,2.806,0,0.806,0.654,1.194,0,0.602,0,0,5.806,0.032,0,0.035,0.0028,0.0492,0,0,0,0,0,0
"IE_COL",2015-08-24,"Colgagh Lough","DUNDALK","Ireland",54.275,-8.396388889,24,24,10.5,3,19.3,0.25,16.4,14.23,0.18,0.5,0.106,0.02,8.466,NA,NA,NA,NA,0.105,0,0,0.123,0.102,0,0,0,0,0,0,0,0,0,0,0,0,0,0
"IE_CORD",2015-08-25,"Corduff","DUNDALK","Ireland",54.06388889,-7.738888889,64,5,2.5,0.58,4,0.25,15.2,14.36,NA,1.1,0.025,0.14,65.127,1.305,0.291,0.431,0,0,0,0,0,0,0,0,0,0,0,0,0,0,0,0,0,0,0,0
"IE_MILL",2015-08-27,"Milltown","DUNDALK","Ireland",54.14583333,-6.712222222,NA,NA,NA,0.64,9,NA,14.8,14.59,0.03,0.9,0.377,0.19,48.576,2.541,0.642,0.929,0,0,0,0,0,0,0,0,0,0,0,0,0,0,0,0,0,0,0,0
"IE_TEMP",2015-08-25,"Templehouse","DUNDALK","Ireland",54.09972222,-8.589444444,51,5,2.6,0.78,7,0.25,14.6,14.1,0.02,0.7,0.218,0.07,21.368,1.014,0.119,0.244,0,0.215,0,0,0,0.063,0,0,0,0,0,0,0.0028,0,0,0,0,0,0,0
"IT_CAL",2015-08-17,"Caldonazzo","FEM-NORITAL","Italy",46.01416667,11.25138889,450,49,26.5,7.4,20,8.13,24.9,16.19,0.02,NA,0.119,NA,6.087,1.269,0.155,0.144,0,0,0,0,0,0.044,0,0,0,0,0.0577,0,0.0034,0,0,0,0,0,0,0
"IT_CAMPO",2015-07-22,"Campo","FEM","Italy",46.03991667,10.49677778,1943,27,13.7,11.4,10,6.3,17.75,12.26,0.08,NA,0.062,NA,5.026,1.479,0,0,0,0.292,0,0.05,0,0.14,0,0,0,0,0,0,0,0,0,0,0,0,0,0
"IT_GAR",2015-08-11,"Garda","FEM-NORITAL","Italy",45.6975,10.72083333,65,350,133,7,30,23.45,24.04,20.03,0.02,NA,0.121,0.02,4.58,2.33,0.35,0.296,0,0,0,0,0,0.054,0,0,0,0,0.2255,0,0.0019,0,0,0,0,0,0,0.549
"IT_ISE",2015-09-07,"Iseo","FEM-NORITAL","Italy",45.68722222,10.06722222,186,251,123,6.2,30,18.45,21.16,16.27,0.02,0.3,0.437,0.02,11.408,1.4,0.34,0.165,0,0,0,0,0,0,0,0,0,0.002,0.0312,0,0.0021,0,0,0,0,0,0,0.0085
"IT_LEV",2015-08-03,"Levico","FEM-NORITAL","Italy",46.0175,11.27388889,440,38,11.1,5,20,7.29,25.37,14.83,0.05,NA,0.235,0.04,5.398,2.664,0,0,0,0.159,0,0.062,0,0.143,0,0,0,0.046,0.0251,0,0.2076,0,0,0,0,0,0,3e-04
"IT_SER",2015-07-28,"Serraia","FEM-NORITAL","Italy",46.13666667,11.25555556,974,16,6.5,1.5,5,3.41,23.76,20.53,NA,NA,0.007,0.08,NA,4.096,0.521,0.267,0,0,0,0.153,0,0.103,0,0,0,0.002,0,0,0.0028,0.0133,0,0,0,0,0,0
"IT_TOVEL",2015-08-04,"Tovel","FEM","Italy",46.26127778,10.94947222,1178,39,19,7.9,20,1.46,18.48,9.98,0.11,0.8,0.242,NA,5.524,1.429,0.075,0.341,0,0.298,0,0,0,0.116,0,0,0,0,0,0,0,0,0,0,0,0,0,0
"LT_BAL",2015-08-25,"Balsys","NRC","Lithouania",54.79094444,25.33197222,114,39,15.2,5.2,8,6.75,21.5,19.36,NA,0.4,NA,0.02,NA,1.688,0,0.163,0,0,0,0,0.191,0.121,0,0,0,0,0,0,0,0,0,0,0,0,0,0
"LT_DID",2015-08-14,"Didziulis","NRC","Lithouania",54.330439,24.368417,101,18,6.5,0.5,7.5,6.56,23.3,19.43,NA,0.8,NA,0.04,NA,65.37,2.33,0.902,0,0,0,0.815,0.94,0.923,0,0,0,0.025,2.4094,0,0.1235,0.01,0,0,0,0,0.064,2.708
"LT_GAU",2015-08-04,"Gaustvinis","NRC","Lithouania",55.65575,23.20038889,115,5,2.5,0.48,2,0.25,22,20.44,0.02,1.6,NA,0.02,6.953,81.649,3.423,0.916,1.2,0.874,0,1.17,4.027,4.079,0,0,0,0.014,0,0.2252,0.0122,0.1002,0,0,0,0,0,0.0043
"LT_GIN",2015-08-12,"Gineitiskes","NRC","Lithouania",54.73747222,25.18572222,159,3,1.5,0.51,1.7,1.75,25.4,24.85,0.06,0.9,0.007,0.02,5.33,102.289,4.806,3.596,1.162,3.801,0,0.863,0.999,2.546,0,0,0,0.038,0,0.4241,0.1716,0.3984,0,0,0,0,0.0294,0
"LT_GUL",2015-08-07,"Gulbinas","NRC","Lithouania",54.79386111,25.30755556,134,12,4.2,0.7,5.5,4.55,24.2,19.35,0.05,1,0.008,0.68,NA,36.874,2.245,0.641,0,0,0,0,0.719,0.637,0,0,0,0.015,2.8047,0,0.208,0,0,0,0,0,0,0
"LT_JIE",2015-08-17,"Jieznas","NRC","Lithouania",54.59152778,24.18508333,94,4,2.9,0.45,2.8,2.75,22.2,21.83,0.05,1.1,NA,0.03,4.073,103.899,4.542,2.835,0,1.684,0,0,0,1.674,0,0,0,0.055,0,0.6232,0.0436,0.2533,0,0,0,0,0.0336,1.3333
"LT_LUK",2015-08-01,"Lukstas","NRC","Lithouania",55.71286111,22.335,155,7,3.6,0.84,4,NA,16.8,17.17,0.05,0.6,NA,0.02,NA,34.594,1.749,2.748,0,1.34,0,0.39,0,0.321,0,0,0,0.058,0.3418,0.7915,0.0714,0.3318,0,0,0,0,0.0094,0.0154
"LT_MAS",2015-08-01,"Mastis","NRC","Lithouania",55.97755556,22.24886111,126,5,2.6,0.45,3,NA,17.6,17.83,0.16,0.7,0.018,0.19,32.338,112.696,5.406,2.354,0,3.97,0,0.619,0,1.361,0,0,0,0.041,0.1663,0.8026,0.0669,0.3715,0,0,0,0,0,0
"LT_NIE",2015-08-24,"Niedulis","NRC","Lithouania",54.39172222,24.36605556,132,7,3.7,0.95,6,4.7,20.8,19.78,0.03,1.2,NA,0.29,NA,35.013,2.437,1.236,0,0.492,0,0,0,0.319,0,0,0,0.12,5.181,0.0721,0.2691,0.0347,0,0,0,0,0.2976,0.0338
"LT_PAB",2015-08-24,"Pabezninkai","NRC","Lithouania",54.34941667,24.571,135,3,1.9,1,1.2,NA,21.2,21.2,0.07,1,NA,0.03,NA,35.669,0,0,1.256,0,0,0,0,0,0,0,0,0,0,0,0,0,0,0,0,0,0,0
"LT_REK",2015-08-03,"Rekyva","NRC","Lithouania",55.86075,23.31230556,126,5,2,0.43,2,0.25,19.9,18.82,0.05,0.6,NA,0.03,NA,92.959,0,13.651,14.295,1.618,0,1.198,0,1.037,0,0,0,0.017,0,0,0.0028,0.0466,0,0,0,0,0,0
"LT_SIM",2015-08-11,"Simnas","NRC","Lithouania",54.39433333,23.643,88,5,2.2,0.4,2.5,1.81,24.8,23.93,0.02,0.8,NA,0.02,5.357,132.097,2.953,3.996,0,0,0,5.691,0,2.485,0,0,0,0.093,0.1088,1.6451,0.0225,0.5492,0,0,0,0,0,0.1
"LT_SIR",2015-08-18,"Sitvys","NRC","Lithouania",54.98566667,25.21661111,130,5,2.2,0.7,4,3.75,20.8,20.08,0.13,0.8,NA,0.02,NA,53.623,1.03,1.627,1.99,0,0,0,3.993,2.207,0,0,0,0.143,3.5201,0,0.5038,0.0233,0,0,0,0,0.3796,0.29
"LT_TAL",2015-08-03,"Talksa","NRC","Lithouania",55.93819444,23.33627778,103,8,3.5,0.65,5,0.25,21.9,19.44,NA,0.6,NA,0.02,5.173,52.728,2.261,1.921,0.601,1.665,0,0.378,0.968,0.755,0,0,0,0.475,2.2776,0.3061,1.1138,0.1664,0,0,0,0,0.0776,0.1028
"LT_UDR",2015-08-11,"Udrija","NRC","Lithouania",54.43508333,23.85044444,71,5,NA,0.26,2,1.67,25.5,23.74,0.12,1.8,NA,0.02,6.279,207.176,2.402,18.646,12.237,0,0,2.015,0,0,0,0,0,2.965,7.5326,0,2.5595,0,0,0,0,0,0.3195,0.071
"MK_DOJ",2015-09-06,"Dojran","MAS","Macedonia",41.19861111,22.73333333,320,8,3,2.8,7,5.77,28.8,27.43,0.05,1.6,0.019,0.16,13.618,10.352,1.262,0.675,0,0,0,0,0,0,0,0,0,0.058,0,0.8436,0.0573,1.7334,0,0,0,0,0,0
"MK_OHR",2015-09-08,"Ohrid","MAS","Macedonia",41.02722222,20.81138889,620,330,155,9.2,23.5,22.99,24.5,22.13,NA,0.6,0.008,0.04,5.231,0.127,0,0,0,0,0,0,0,0,0,0,0,0,0,0,0,0,0,0,0,0,0,0
"MK_PRE",2015-09-07,"Prespa","MAS","Macedonia",40.9525,20.91888889,847,47,14,2.9,11,9.49,24.5,23.63,0.05,1.3,0.009,0.03,NA,2.842,0.486,0.821,0,0,0,0,0,0.114,0,0,0,0,0,0,0,0,0,0,0,0,0,0
"NL_AMS",2015-08-12,"Amstelveense","AMB","Netherlands",52.30002778,4.840333333,0,2,NA,0.2,1.5,NA,22.51,22.46,0.29,1.8,0.02,0.04,7.211,690.16,27.696,29.357,0,3.556,0,4.466,0,2.072,0,0,17.274,0.088,0.3829,1.9873,0.0569,1.4138,0,0,0,0,0,0.0507
"NL_EM",2015-08-27,"Empelse put","AKWA","Netherlands",51.72298,5.337262,NA,31,11.6,7.5,5.5,6.32,20.31,20.25,0.11,0.3,0.06,NA,63.821,12.105,0,0.608,0,0,0,0.497,0,0.626,0,0,0,0,0,0,0,0,0,0,0,0,0,0
"NL_ERT",2015-08-05,"Ertveldplas","AKWA","Netherlands",51.70669444,5.288194444,2,25,NA,1.05,8,12.67,21.43,19.27,0.15,1.3,1.239,0.02,49.443,33.488,2.046,0.811,0,0,0,0,0,0,0,0,0,0,0,0,0,0,0,0,0,0,0,0
"NL_GEF",2015-08-21,"Geffense","AKWA","Netherlands",51.74069444,5.496638889,6,18,NA,7.5,5,11.69,21.5,20.82,0,0.8,0.391,NA,4.319,4.292,0,0.463,0,0,0,0,0,0,0,0,0,0,0,0,0,0,0,0,0,0,0,0
"NL_HEW",2015-08-25,"Henschotermeer","AKWA","Netherlands",52.080702,5.373029,NA,2,1.5,0.5,1.8,NA,NA,21.17,0.06,0.6,NA,NA,6.575,65.188,0,11.481,0,0,0,0,0,0,0,0,0,0,0,0,0,0,0,0,0,0,0,0
"NL_KIN",2015-08-12,"Kinselmeer","AMB","Netherlands",52.38566667,5.017111111,0,3,NA,0.25,1.8,1.58,22.15,21.98,0.87,2.5,0.009,0.03,575.094,248.581,3.032,23.852,13.69,0,0,3.383,0,0,0,0,0,1.37,9.0768,0,2.0126,0.1096,0,0,0,0,0,0.0128
"NL_KON",2015-08-12,"Koningshoeve","AKWA","Netherlands",51.55163889,5.120138889,11,14,NA,3.4,4,8.52,23.73,22.3,0.09,NA,NA,NA,NA,8.612,0,0,0,0,0,0,0,0,0,0,0,0.002,0,0,0,0.0269,0,0,0,0,0,0
"NL_MEE",2015-08-17,"Meerwijkplas","AMB","Netherlands",52.34833333,4.664083333,0,3,NA,0.8,2.5,NA,20.34,20.34,0.61,0.7,0.057,0.56,491.424,71.633,2.788,2.545,0.352,1.615,0,2.523,0,1.212,0,0,0,0.002,0,0,0.0028,0.0261,0,0,0,0,0,0.0017
"NL_MOL",2015-08-17,"Molenplas","AMB","Netherlands",52.344,4.655111111,0,12,NA,2,5,5.57,20.68,20.66,0.41,1,0.465,0.15,298.276,2.069,0.237,0.22,0,0,0,0.166,0,0,0,0,0,0,0,0,0,0,0,0,0,0,0,0
"NL_NM",2015-08-31,"Nieuwe Meer","AKWA","Netherlands",52.331641,4.820326,NA,31,14,NA,1,NA,NA,NA,0.3,1.7,0.85,NA,161.363,1.392,0.201,0,0,0,0,0,0,0,0,0,0,0,0,0,0,0,0,0,0,0,0,0
"NL_PUT",2015-08-07,"Put Van Drunen","AKWA","Netherlands",51.67822222,5.113944444,3,15,NA,4.5,6,8.52,23.73,21.62,0.11,NA,NA,NA,6.71,3.696,0,0,0,0,0,0,0,0,0,0,0,0,0,0,0,0,0,0,0,0,0,0
"NL_REE",2015-08-28,"Plaas aan de Reeweg","AKWA","Netherlands",51.70391667,5.752083333,16,10,NA,3.75,6.5,7.59,20.98,20.53,0.02,NA,NA,NA,4.515,21.181,1.1,0.511,0,0,0,0,0,0,0,0,0,0,0,0,0.0163,0.0255,0,0,0,0,0,0
"NL_SLO",2015-08-19,"Sloterplas","AMB","Netherlands",52.36366667,4.817222222,0,39,NA,4,10,10.2,19.71,19.08,0.29,0.4,0.15,0.08,280.733,7.511,0.152,0,0,0,0,0.251,0,0.22,0,0,0,0.001,0,0,0.0028,0.0066,0,0,0,0,0,0
"NL_STOO",2015-09-02,"Stooterplas","AMB","Netherlands",52.45254,4.890774,0,44,NA,1.7,14,12.74,19.26,17.79,0.16,NA,0.052,0.04,15.321,35.347,1.424,0.396,1.095,0.642,0,0.731,2.983,1.712,0,0,0,0.014,0,0.0372,0.0057,0.0435,0,0,0,0,0,7e-04
"NL_WES",2015-08-17,"Westbroekplas","AMB","Netherlands",52.42558333,4.669416667,-1,30,NA,0.6,8.5,8.43,19.88,18.610625,0.17,0.3,NA,0.08,10.565,56.348,3.896,0.439,0,1.636,0,0.486,0.431,1.086,0,0,0,0.002,0.095,0,0.0171,0.012,0,0,0,0,0,0.0076
"NL_WYL",2015-08-11,"Wylerbergmeer","AKWA","Netherlands",51.826224,5.944239,NA,6,3.5,1.25,4,NA,NA,21.72,0.14,0.2,NA,NA,6.689,18.005,1.616,1.433,0,1.058,0,0,0,0.505,0,0,0,0,0,0,0,0,0,0,0,0,0.0097,0.0013
"NO_AKE",2015-08-26,"Akersvannet","NIVA","Norway",59.24499167,10.32690083,16,8,NA,1.3,4,NA,18.9,18.79,0.12,1,0.102,NA,8.802,17.529,0.477,0.832,0,0,0,0.301,0,0,0,0,0,0.01,0,0.21,0.0184,0.6356,NA,NA,NA,0,0,0
"NO_ARU",2015-08-12,"Arungen","NIVA","Norway",59.68997417,10.74331722,34,12,NA,1.2,4,9.94,18.55,18.35,0.12,3.1,1.895,NA,10.41,6.854,1.029,0.359,0,0.437,0,0.421,0,0.298,0,0,0.109,0,0,0,0,0,0,0,0,0,0,0
"NO_HIL",2015-08-26,"Hillestadvannet","NIVA","Norway",59.5143325,10.15597611,37,3,NA,0.55,2,2.01,18.4,18.22,0.24,0.6,NA,NA,10.942,25.818,1.591,1.914,0.457,0,0,0.388,0,0,0,0,0,0.374,0.2166,3.3088,0.1129,2.2819,0,0,0,0,0,0
"NO_MJA",2015-08-19,"Mjaer","NIVA","Norway",59.69832931,11.05206361,109,15,NA,1.7,4,12.31,18.85,18.77,0.2,0.8,0.088,NA,13.706,10.075,0.348,0,0.391,0,0,0.41,0,0,0,0,0,0,0,0,0,0,0,0,0,0,0,0
"NO_OST",2015-08-12,"Ostensjovannet","NIVA","Norway",59.68844944,10.82986111,107,6,NA,0.6,4,5.27,17.86,17.56,0.18,1.8,0.716,NA,7.409,18.447,1.63,2.676,0,0,0,1.396,0,0.573,0,0,0,0,0,0,0,0,0,0,0,0,0,0
"NO_SAB",2015-08-19,"Saebyvannet","NIVA","Norway",59.42701722,10.98318778,47,19,NA,1.2,4,8.74,18.97,18.89,0.27,1.6,0.431,NA,12.287,5.548,0.386,0.226,0.271,0,0,0.207,0,0,0,0,0,0,0.0605,0,0.0042,0,0,0,0,0,0,0
"NO_SKU",2015-08-31,"Skulerudsjoen","NIVA","Norway",59.66792389,11.54612917,119,14,NA,1.45,4,8.29,18.59,18.26,0.17,0.9,0.173,NA,10.376,6.128,0.329,0,0.136,0,0,0.381,0,0.196,0,0,0.045,0.002,0,0,0,0.007,0,0,0,0,0,0
"NO_STO",2015-08-19,"Vansjo-Storefjorden","NIVA","Norway",59.39440806,10.83571972,25,33,NA,1.85,4,NA,19.14,19.11,0.02,1,0.539,NA,NA,3.177,0.284,0.236,0,0.174,0,0.125,0,0.111,0,0,0,0.002,0,0,0.0028,0.0042,0,0,0,0,0,0
"NO_TUN",2015-08-31,"Tunevannet","NIVA","Norway",59.29807833,11.08458833,40,10,NA,1,4,NA,18.08,17.98,0.1,0.4,0.011,NA,NA,11.938,0.493,0.804,0,0.449,0,0,0,0,0,0,0,0.009,0.085,0.3229,0.022,0.0543,0,0,0,0,0,0
"NO_VAN",2015-08-19,"Vansjo-Vanemfjorden","NIVA","Norway",59.44232083,10.75360167,25,16,NA,1.4,4,NA,19.61,19.55,0.15,0.5,0.074,NA,NA,13.315,0.862,0.507,0.453,0.678,0,0.392,0,0.278,0,0,0.161,0.002,0.0336,0.1177,0.0058,0.0425,0,0,0,0,0,0
"PL_BAR",2015-08-12,"Bartezek","IOUG","Poland",53.83109167,19.84415,100,15,5.1,0.75,6.25,5.58,26.5,21.32,0.18,0.6,NA,0.05,7.73,27.85,0.846,2.225,3.292,0.324,0,0.685,0,0.462,0,0,0.171,0.249,0.3001,0,0.1195,0,0,0,0,0,6e-04,0
"PL_BIA",2015-07-22,"Biale Sosnowickie","HydroLab","Poland",51.53272222,23.0425,154,3,1.3,0.23,0.7,NA,24,23.95,0.21,1.8,0.013,0.05,11.613,119.585,25.539,10.377,0,2.145,0,1.553,0,0,0,0,0,0.066,0,2.017,0.0372,0.4328,0,0,0,0,0.0027,0.0067
"PL_BNI",2015-08-03,"Bninskie","WPROT","Poland",52.20016667,17.11708333,66,9,4.2,0.97,6.5,0.25,23.3,20.46,0.04,0.4,NA,0.05,15.016,31.736,4.872,3.829,0.603,0,0,1.177,3.127,1.907,0,0,0.531,0,0,0,0,0,0,0,0,0,0.0072,0
"PL_BUD",2015-08-02,"Bukowieckie Dute","HYDROPOZ","Poland",52.400966,15.620132,59,4,1.9,1.7,5,6.33,22.9,21.42,0.02,0.7,0.007,0.04,15.267,5.462,0.924,0.703,0,0.497,0,0,0,0,0,0,0,0.006,0.0218,0.0281,0.0028,0.048,0,0,0,0,0,0
"PL_BUM",2015-08-02,"Bukowieckie Mate","HYDROPOZ","Poland",52.381964,15.603918,59,4,1.9,1.2,2.5,3.75,22.9,22.33,0.02,1.7,0.022,0.12,15.618,12.399,1.797,2.054,0,1.027,0,0,0,0.484,0,0,0,0.002,0.0261,0.0258,0.0028,0.0344,0,0,0,0,0,0
"PL_BUSZ",2015-08-12,"Buszewskie ","HYDROPOZ","Poland",52.54277778,16.37722222,90,14,4.8,0.5,8,5.39,27.8,18.52,NA,1.8,0.021,0.68,17.573,8.298,0.79,0.932,0,0,0,0,0,0,0,0,0,0.533,0.5467,0,0.4834,0.0133,0,0,0,0,0.0375,0.0014
"PL_CZA",2015-08-27,"Czarne","HYDROOLS","Poland",53.78222222,20.45444444,104,7,2.7,1.8,6,4.13,21.37,17.11,0.06,0.8,NA,0.68,57.826,49.465,10.458,7.382,0,0,0,2.153,1.88,4.738,0,0,0.853,0,0,0,0,0,0,0,0,0,0.0063,0.0022
"PL_CZE",2015-08-11,"Czerniakowskie","KIW","Poland",52.19305556,21.07138889,82,5,2,0.5,3.5,2.33,26.8,24.81,0.03,2.9,0.005,0.3,19.804,30.095,5.433,0.901,0,0,0,0.277,0,0.537,0,0,0,0.007,0,0.1036,0,0.0427,0,0,0,0,0.082,0.0975
"PL_DEB",2015-08-04,"Debno","HYDROPOZ","Poland",52.29361111,16.69880556,77,16,5.5,3.2,9,8.11,25.2,19.51,0.03,0.7,NA,0.04,14.124,3.495,0,0.337,0,0,0,0,0,0,0,0,0,0.002,0.2503,0,0.0229,0,0,0,0,0,0.021,0
"PL_DLU",2015-08-26,"Dlugie","HYDROOLS","Poland",53.78611111,20.46111111,103,17,5.3,2.5,8,5.56,21.63,16.94,NA,0.2,NA,0.03,NA,13.873,0.63,1.56,0,0,0,0.73,0,0.245,0,0,0,0.002,0,0,0.0028,0.0042,0,0,0,0,0.0206,0
"PL_DZIE",2015-08-10,"Dziekanowskie","KIW","Poland",52.36722222,20.84694444,75,10,NA,0.8,4,2.32,27,24.58,0.02,1.1,0.017,0.07,13.133,32.249,1.216,0,5.802,0,0,0.608,17.119,11.152,0,0,0,0,0,0,0,0,0,0,0,0,0,0.0021
"PL_GOR",2015-07-24,"Goreckie","HYDROPOZ","Poland",52.26575,16.79672222,66,17,9,1.5,8,7.58,23.7,20.16,0.02,1.5,NA,0.04,15.375,5.481,0,0.642,0,0,0,0,0,0,0,0,0,0.032,0.3023,0,0.2529,0,0,0,0,0,0.3144,0
"PL_GRY",2015-08-02,"Grylewskie","HYDROPOZ","Poland",52.88611111,17.25222222,80,7,3.6,1.2,5,6.31,22.7,21.35,0.04,2,0.019,0.32,12.45,NA,NA,NA,NA,0.548,0,0.311,0,0.491,0,0,0,0.014,0.0253,0.0649,0.0028,0.0642,0,0,0,0,0,0.0097
"PL_ILI",2015-08-12,"Ilinskie","IOUG","Poland",53.79708611,19.84148611,100,27,8.6,0.65,9.5,9.67,25.7,18.72,0.16,0.7,0.01,0.05,7.232,6.539,0,0.323,0,0,0,0,0.366,0.208,0,0,0,0.004,0.3317,0.046,0.0452,0.0214,0,0,0,NA,0.39,0.0072
"PL_JAR",2015-07-22,"Jaroslawieckie","HYDROPOZ","Poland",52.28502778,16.79886111,76,7,3.68,1.7,6,4.66,24.6,21.99,NA,0.8,0.015,0.05,15.099,11.046,2.245,0,0,0,0,0,0,0,0,0,0,0.01,0,0.0302,0.0028,0.0638,0,0,0,0,0,0
"PL_JEZ",2015-08-08,"Jeziorsko Reservoir","ILONA GAGALA","Poland",51.84967528,18.69479017,NA,NA,5.2,1.9,6,2.23,29.4,24.2,NA,NA,NA,NA,NA,0.148,0,0,0,0,0,0,0,0.871,0,0,0,0,0,0,0,0,0,0,0,0,0,0
"PL_KAM",2015-07-22,"Kamedut","BIA","Poland",54.26666667,22.86581667,161,25,6.8,2.5,6,4.43,21.3,19.08,NA,NA,0.015,0.02,10.587,0.799,0,0,0,0,0,0,0,0,0,0,0,NA,NA,NA,NA,NA,NA,NA,NA,NA,NA,NA
"PL_KIEL",2015-08-10,"Kielpinskie","KIW","Poland",52.36166667,20.87583333,76,6,4,1.3,3.5,2.13,25.6,24.17,0.04,0.4,0.051,0.06,9.038,21.159,1.937,0.434,0,0.551,0,0.243,0,4.287,0,0,0,0.002,0,0,0,0,0,0,0,0,0,0
"PL_KIERM",2015-08-12,"Kierskie Male","HYDROPOZ","Poland",52.4875,16.78722222,72,2.5,1,0.5,1.5,0.76,28.7,27.48,NA,1,NA,0.04,17.167,10.454,8.697,13.131,1.042,0.574,0,0.891,0.499,0,0,0,0,0.002,0,0.0729,0.0028,0.0252,0,0,0,0,0.214,0
"PL_KOR",2015-08-25,"Kortowskie","HYDROOLS","Poland",53.761444,20.445607,103,17,5.9,1.2,7,6.02,20.85,18.92,NA,0.6,NA,0.17,11.779,25.049,0.913,1.966,0,0,0,0,0,0,0,0,0,0.002,0.3523,0,0.0251,0,0,0,0,0,0.536,0.0317
"PL_KOR2",2015-08-03,"Kornickie","WPROT","Poland",52.25041667,17.08033333,65,6,2.6,0.55,3,0.25,23.07,21.93,NA,0.6,NA,0.04,18.414,44.045,11.233,6.084,0,0.867,0,1.133,0,0.868,0,0,0,0.006,0.1226,0.0821,0.0194,0.0399,0,0,0,0,0.0058,0
"PL_LED",2015-08-26,"Lednica","HYDROPOZ","Poland",52.52302778,17.37905556,110,15,NA,2.9,10,9.3,21.3,19.57,0.02,0.8,0.012,0.04,13.227,5.818,0,0.734,0,0,0,0.148,0,0,0,0,0,0,0,0,0,0,0,0,0,0,0,0
"PL_LEK",2015-08-02,"Leknenskie","HYDROPOZ","Poland",52.842467,17.292447,NA,NA,NA,0.2,2.5,2.46,21.2,20.67,0.14,3.1,0.008,0.04,21.501,520.563,0,28.562,11.427,0,0,1.178,0,0,0,0,0,5.05,12.5029,0,4.0492,0,0,0,0,0,0,0
"PL_LODY",2015-08-04,"Lodzko Dymaczewskie","HYDROPOZ","Poland",52.24905556,16.75191667,65,12,5.3,0.75,8,7.35,24.2,20.89,0.03,0.7,NA,0.08,13.06,77.276,1.94,1.252,0,0,0,0,1.238,0.693,0,0,0,1.266,6.2518,0,1.0764,0.0429,0,0,0,0,0.0355,0.0675
"PL_LUB",2015-08-12,"Lubosinskie","HYDROPOZ","Poland",52.52777778,16.3825,NA,NA,2.6,0.5,1.5,1.75,27.5,25.63,0.04,2.3,NA,0.05,13.192,11.848,0.929,2.496,0,0.7,0,0,0,0,0,0,0,0.855,4.7671,0,1.1346,0.0466,0,0,0,0,0.0069,0.0055
"PL_LUS",2015-08-31,"Lusowskie","WPROT","Poland",52.42986667,16.65826667,78,20,8.6,2.7,10,9.54,23.07,19.68,0.07,0.5,NA,0.04,15.736,5.472,0,1.064,0,0,0,0.139,0,0,0,0,0,0,0,0,0,0,0,0,0,0,0.0101,0
"PL_MAJCZ",2015-08-25,"Majcz","UW","Poland",53.77388889,21.46,125,16,6,5.2,7,6.48,21.3,20.6,0.06,0.6,NA,NA,5.268,4.963,0.314,0.311,0,0.226,0,0.063,0,0.09,0,0,0,0.002,0.0304,0,0.0025,0.0051,0,0,0,0,0,0
"PL_MAL",2015-07-28,"Maltanski Reservoir","WPROT","Poland",52.401944,16.970556,NA,5,3.13,0.95,3,NA,20.1,20.1,0.06,0.4,NA,0.02,16.825,67.181,9.833,0,1.518,0.966,0,1.556,5.229,5.431,0,0,0.623,0.002,0,0,0,0.0042,0,0,0,0,0.0012,0.0078
"PL_MIK",2015-08-26,"Mikolajskie","UW","Poland",53.78194444,21.59222222,NA,25.9,11,1.35,7.5,10.27,21.1,20.47,0.07,0.8,0.016,NA,6.277,24.237,0,0.405,1.057,0.242,0,0.183,2.087,1.341,0,0,0,0.079,0.1764,0,0.0618,0,0,0,0,0,1.158,0.0675
"PL_NID",2015-08-06,"Nidzkie","IEP-NRI","Poland",53.57555556,21.54888889,119,24,6.2,0.8,10,10.7,23.8,19.06,0.08,0.7,0.012,NA,6.111,32.488,0.992,0.915,0,0,0,0,0.527,0.278,0,0,0,1.407,2.4491,0,1.33,0.0369,0,0,0,0,0.0572,0
"PL_NIE",2015-08-28,"Niepruszewskie","WPROT","Poland",52.38363333,16.61503333,76,5,3.1,0.55,5,NA,21.31,21.04,0.05,1,NA,0.02,23.966,26.028,1.819,3.184,0,0.655,0,0.45,0,0.462,0,0,0,0.002,0,0.0913,0.0028,0.1171,0,0,0,0,0,0
"PL_PNIEW",2015-08-12,"Pniewskie","HYDROPOZ","Poland",52.51138889,16.24083333,116,2,1.3,0.6,1.5,1.38,27.5,26.63,0.02,0.8,0.008,0.04,9.791,5.667,0.721,5.734,3.873,1.457,0,0.588,0,0,0,0,0,0.021,0,0.1674,0.0028,0.0895,0,0,0,0,0.0038,0
"PL_POD",2015-08-26,"Podkowka","HYDROOLS","Poland",53.804962,20.450855,NA,NA,NA,2,4,1.27,21.12,20.6,NA,0.3,NA,0.1,5.969,21.358,1.826,0.881,0,0.528,0,0.978,0,0.508,0,0,0,0,0,0,0,0,0,0,0,0,0,0
"PL_POD_I",2015-08-11,"Podkamycze_1","INC-PAN","Poland",50.08638889,19.83377778,131,6,2.85,2.9,2.9,NA,26.99,23.71,0.03,3.1,1.081,0.2,20.623,23.786,1.507,0,0.244,0,0,0.226,0,0,0,0,1.099,0,0,0,0,0,0,0,0,0,0,0
"PL_POD_II",2015-08-11,"Podkamycze_2","INC-PAN","Poland",50.08322222,19.83483333,209,3,2.5,2.1,2,NA,24.9,22.92,0.04,1.1,0.107,0.21,12.521,34.276,2.378,3.347,0.546,0,0,2.433,0,2.343,0,0,0,0.108,0.0604,1.0054,0.0523,1.2578,NA,0,0,0,0,0
"PL_POW",2015-08-11,"Powsinkowskie","KIW","Poland",52.15861111,21.09833333,82,2,1.5,1.75,2,1.25,24.1,23.83,NA,0.5,0.01,0.06,16.446,5.017,0.921,0.74,0,0,0,0.3,0,0,0,0,0,0,0,0,0,0,0,0,0,0,0,0
"PL_PRO",2015-08-05,"Probarskie","IEP-NRI","Poland",53.82322222,21.37822222,180,31,9.2,1.8,8.5,9.33,22.38,19.06,0.09,0.7,0.022,NA,NA,5.216,0.311,2.152,0,0,0,0,0,0,0,0,0,0,0,0,0,0,0,0,0,0,8e-04,0
"PL_RAC",2015-07-30,"Raczynskie","WPROT","Poland",52.143176,17.165351,69,6,2.7,0.35,4.5,NA,20.65,20.61,NA,NA,NA,0.02,16.499,177.172,5.432,3.715,0,0,0,0.724,0,0,0,0,0,0.56,4.8423,0.4708,0.805,0.2531,0,0,0,0,0,1.415
"PL_RED",2015-08-26,"Redykajny","HYDROOLS","Poland",53.81527778,20.41777778,102,21,8,2.3,8,7.56,21.14,17.56,NA,0.5,NA,0.04,NA,7.208,0.383,0.754,0,0,0,0,0,0,0,0,0,0,0.0437,0,0.0061,0,0,0,0,0,0,0
"PL_ROG",2015-08-02,"Rogozinskie","HYDROPOZ","Poland",52.750756,17.007086,70,6,3,0.5,4.5,4.73,24.1,22.86,0.08,2.4,0.015,0.04,14.648,99.435,2.259,4.871,1.602,0,0,0.676,0.401,0.449,0,0,0,1.385,4.1723,0,1.9524,0,0,0,0,0,0,0
"PL_ROS",2015-08-06,"Ros","IEP-NRI","Poland",53.67,21.91861111,119,32,8.1,1.9,12,13.12,23.77,18.06,0.1,0.6,0.022,NA,6.512,15.022,0.755,0.497,0,0.997,0,0,0,0.464,0,0,0,0,0,0,0,0,0,0,0,0,0.1124,0.0026
"PL_RUS",2015-08-14,"Rusalka","WPROT","Poland",52.42469444,16.88380556,69,9,1.9,0.65,2.5,2.41,26.7,25.9,0.07,0.4,NA,0.02,13.329,75.042,21.827,8.537,0,0,0,1.198,1.9,1.355,0,0,0,0.022,0,0.1442,0.0083,0.1052,0,0,0,0,0,0
"PL_RUW",2015-08-12,"Ruda Woda","IOUG","Poland",53.89399167,19.75711667,100,28,10,0.55,6,5.47,25,22.34,NA,0.5,0.006,0.02,4.283,38.329,1.105,0,3.048,0,0,0.505,12.361,8.501,0,0,0,0.002,0,0.0636,0.0057,0.085,0,0,0,0,0.3616,0.0261
"PL_RYN",2015-08-05,"Rynskie","IEP-NRI","Poland",53.90972222,21.48916667,119,51,10.5,0.9,8.5,8.7,23.4,18.07,0.07,0.7,0.009,NA,6.008,13.274,0.744,0.364,0.21,0.293,0,0,1.077,0.944,0,0,0,0.05,0.1629,0,0.0438,0,0,0,0,0,0.2468,0
"PL_SIE",2015-07-21,"Siemianowka","BIA","Poland",52.93980556,23.758375,140,10,2.5,0.35,5,NA,21.8,21.32,NA,1.3,NA,0.04,13.707,209.498,5.932,5.585,1.163,0,0,0,0,0,0,0,0,NA,NA,NA,NA,NA,NA,NA,NA,NA,NA,NA
"PL_SKA",2015-08-27,"Skanda","HYDROOLS","Poland",53.75666667,20.53055556,121,12,5.8,1.5,7,4.32,20.78,17.38,0.04,1.2,NA,0.93,30.067,30.247,2.961,2.383,0,0,0,0,0,0,0,0,0,0.61,1.7397,0,0.2756,0,0,0,0,0,0,0
"PL_STA",2015-08-25,"Starodworskie","HYDROOLS","Poland",53.74805556,20.45361111,111,23,9,2.2,7,4.53,21.32,16.92,NA,0.6,NA,0.12,NA,16.22,0.785,1.951,0,0,0,1.016,0,0.266,0,0,0,NA,NA,NA,NA,NA,NA,NA,NA,NA,NA,NA
"PL_STR",2015-08-29,"Strzeszynskie","WPROT","Poland",52.46005,16.82425,77,18,8,3.15,8.5,5.34,21.7,18.92,NA,0.3,NA,0.02,42.126,22.125,5.816,2.31,0,0,0,0.513,0,0.584,0,0,0,0,0,0,0,0,0,0,0,0,0,0
"PL_STY",2015-08-14,"Strykowskie","WPROT","Poland",52.24505556,16.59961111,74,8,4.5,0.78,5,4.26,25.1,23.25,NA,0.6,NA,0.06,17.8,32.718,5.617,2.093,0,0,0,0.453,0,0.758,0,0,0,0,0,0,0.0028,0.0132,0,0,0,0,0.0043,0
"PL_SUL",2015-08-08,"Sulejow","ILONA GAGALA","Poland",51.45786217,19.97830228,NA,11,3.3,1.15,7,2.47,28.3,23.69,NA,NA,NA,NA,NA,38.2,1.175,0,0,0,0,0,0,0,0,0,1.627,0.031,0,0.3286,0.0103,0.1962,0,0,0,0,0.4045,0
"PL_SUM",2015-07-16,"Sumin","HydroLab","Poland",51.37144444,23.14966667,NA,6,1.5,0.9,1.2,NA,21,21,NA,4.6,NA,0.07,28.691,10.011,1.064,1.327,0,0.722,0,0,0,0.32,0,0,0,0.009,0,0.1374,0.0072,0.0397,0,0,0,NA,0,0
"PL_SWA",2015-08-03,"Swarzndzkie","WPROT","Poland",52.413611,17.065,70,7,2.6,0.85,3,3.41,22.85,22.37,0.06,1.1,NA,0.83,33.009,61.524,10.612,3.009,0.521,0,0,0.71,3.441,2.423,0,0,0,0,0,0,0.0028,0,0,0,0,0,0,0.0063
"PL_SYC",2015-07-16,"Syczynskie","HydroLab","Poland",51.28755556,23.23813889,174,3,1.6,0.16,0.9,NA,21.22,21.07,0.51,2.3,NA,0.04,16.772,312.215,1.808,53.525,0,0,0,4.218,0.407,1.418,0,0,0,0.104,14.8923,0.5807,1.6059,0,0,0,0,0,0.0044,0.0022
"PL_SZU",2015-07-24,"Szurpily","BIA","Poland",54.22928611,22.8975,182,47,10,2.9,7,5.42,20,17.82,NA,0.4,0.007,0.02,4.135,2.141,0,0,0,0.23,0,0,0,0.101,0,0,0,NA,NA,NA,NA,NA,NA,NA,NA,NA,NA,NA
"PL_TOM",2015-07-22,"Tomaszne","HydroLab","Poland",51.46658333,23.00238889,162,3,2.4,0.4,3.3,2.74,23.5,23.2,0.17,0.9,0.008,0.03,6.215,57.397,2.716,0.683,0,0.924,0,0.78,1.795,1.734,0,0,0,0.061,3.5556,0.3153,0.2266,0.0716,0,0,0,0,2.0067,0.007
"PL_TRA",2015-08-27,"Track","HYDROOLS","Poland",53.78916667,20.54,124,4,2.1,0.8,3,NA,20.52,20.38,0.05,0.8,NA,0.04,NA,92.372,6.393,7.329,0,2.619,0,1.281,1.734,2.585,0,0,1.004,0.007,0,0.0692,0.0028,0.0356,0,0,0,0,0.002,0.0099
"PL_TYN_I",2015-08-20,"Tyniec_1","INC-PAN","Poland",50.02986111,19.82761111,201,3,2.5,2.5,2.5,NA,22.8,22.31,0.09,2,0.053,0.21,16.935,27.269,4.36,0.784,0.281,0,0,0.599,1.209,1.114,0,0,0.216,0.046,0,0,0.0068,0.1594,0,0,0,0,0,0.0118
"PL_TYN_II",2015-08-20,"Tyniec_2","INC-PAN","Poland",50.02447222,19.81325,201,2,1.6,1.5,1.5,NA,22.03,21.69,0.06,1.3,0.024,0.26,10.26,50.481,6.4,1.862,0,0,0,0.665,0,0.275,0,0,0.387,1.012,0.0859,2.7337,0.0871,3.968,0,0,0,0,0,0.0804
"PL_TYR",2015-09-01,"Tyrsko","HYDROOLS","Poland",53.80472222,20.42305556,109,30,9.6,3.8,8,9.11,22.36,20.78,NA,0.3,0.029,0.28,17.826,7.196,1.18,0.951,0,0,0,0,0,0,0,0,0,0,0.0276,0,0.0028,0,0,0,0,0,0,0
"PL_UKI_I",2015-08-31,"Ukiel_1","HYDROOLS","Poland",53.77916667,20.43083333,106,20,7,3.8,9,NA,20.92,18.91,NA,0.6,NA,0.13,8.561,17.848,1.155,0.46,0,0.886,0,0,0,0.381,0,0,0.456,0.002,0.0598,0.028,0.0095,0,0,0,0,0,0.1972,0
"PL_UKI_II",2015-08-31,"Ukiel_2","HYDROOLS","Poland",53.78638889,20.42916667,106,41,12.7,3.3,10,NA,21.42,17.81,0.08,0.4,NA,0.05,9.631,6.55,0.59,0,0,0,0,0,0,0,0,0,0,0.002,0.2945,0,0.0217,0.0042,0,0,0,0,0.0322,0.003
"PL_UKI_III",2015-08-31,"Ukiel_3","HYDROOLS","Poland",53.78444444,20.41722222,106,32,10.1,3.7,8,NA,21.52,19.64,NA,0.3,NA,0.03,8.425,9.792,0.433,0.64,0,0,0,0.26,0,0,0,0,0,0,0.4741,0,0.0245,0,0,0,0,0,0.2188,0
"PL_UKI_IV",2015-08-31,"Ukiel_4","HYDROOLS","Poland",53.79139,20.414779,106,43,13.2,3.6,10,NA,22,18.33,NA,0.3,NA,0.08,11.898,7.277,0.159,0,0,0,0,0,0,0,0,0,0,0,0.0735,0,0.0028,0,0,0,0,0,0.009,0.0013
"PL_UZA",2015-07-17,"Uzarzewskie","WPROT","Poland",52.448056,17.133333,71,8,3.4,0.8,6,5.67,21.4,15.63,0.02,0.9,0.095,0.69,13.621,47.421,2.834,0.679,0,1.109,0,0,0,0.755,0,0,0,0.002,0.6235,0,0.0539,0,0,0,0,0,0,0.0028
"PL_WOL",2015-10-03,"Wolnica","INC-PAN","Poland",49.88228,20.0446111,266,5,3.5,2.9,3,NA,9.1,8.67,0.22,0.5,0.071,0.07,6.194,7.345,0.477,0.548,0.18,1.75,0,0.578,0,1.008,0,0,0,0.002,0,0,0,0.0047,0,0,0,0,0,0.0019
"PL_ZEM",2015-07-17,"Zemborzycki","HydroLab","Poland",51.18844444,22.52969444,179,4,NA,0.3,1.8,1.26,21.95,21.67,0.03,1.3,0.005,0.03,13.942,49.891,8.105,5.289,0,0,0,2.086,0,7.328,0,0,0,0.002,0,0.0539,0.0028,0.0151,0,0,0,0,0,0.1081
"PT_AZI",2015-08-06,"Azibo","CIIMAR-BBE","Portugal",41.57561111,-6.897638889,500,30,13.2,5,10.5,12.28,24.32,23.44,0.07,0.4,NA,0.03,3.83,0.899,0.186,0.369,0,0,0,0,0,0,0,0,0,0,0,0,0,0,0,0,0,0,0,0
"PT_AZU",2015-09-08,"Azul","CIBIO-UAC","Portugal",37.87288333,-25.76991667,260,29,11.1,3.35,15.5,14.25,22.29,21.35,0.07,1,NA,0.02,NA,0.726,0,0,0,0,0,0,0,0,0,0,0,0.002,0,0.0426,0,0,0,0,0,0,0,0
"PT_FUR",2015-09-07,"Furnas","CIBIO-UAC","Portugal",37.758206,-25.332376,280,11,4.8,1.28,10.5,NA,21.53,21.51,0.05,2,0.007,0.04,NA,8.327,1.631,0.556,0,0,0,0,0,0,0,0,0,0.002,0.0244,0.0179,0.0028,0.0042,NA,NA,NA,NA,0,0
"PT_GOS",2015-08-05,"Gostei","CIIMAR-BBE","Portugal",41.78597222,-6.820972222,748,6,NA,2.5,5.5,NA,24.98,24.9,0.07,1.5,0.006,0.04,4.959,0.623,0.099,0.419,0,0,0,0,0,0,0,0,0,0,0,0,0,0,0,0,0,0,0,0
"PT_MIR",2015-08-07,"Miranda","CIIMAR-BBE","Portugal",41.49486111,-6.26925,600,80,NA,2.5,18.5,1.74,23.94,22.61,0.08,1.2,0.192,0.17,9.173,5.338,1.816,0.662,0,0,0,0.075,0,0.146,0,0,0,0,0,0,0,0,0,0,0,0,0,0
"PT_PEN",2015-08-06,"Peneireiro","CIIMAR-BBE","Portugal",41.29397222,-7.175222222,500,11,5.1,2.5,4,1.47,24.78,23.44,0.11,0.9,NA,0.05,5.088,41.598,0.447,0,0.668,0,0,0,0,0,0,0,0,0.002,0,0.0095,0,0,0,0,0,0,0,0
"PT_PXO",2015-09-10,"Peixao","IDL-PT","Portugal",40.33604,-7.5926361,1670,4,NA,3,3,NA,15.21,15.03,0.06,1.5,0.007,0.04,6.86,0.456,0,0,0,0,0,0,0,0,0,0,0,0,0,0,0,0,0,0,0,0,0,0
"PT_RDN",2015-09-09,"Redonda","IDL-PT","Portugal",40.37035,-7.6236,1610,4,NA,1.84,3,NA,14.8,14.59,NA,2.4,0.011,NA,6.345,2.241,0,0,0,0,0,0.206,0,0,0,0,0,0,0,0,0,0,0,0,0,0,0,0
"PT_SS",2015-08-08,"Serra Serrada","CIIMAR-BBE","Portugal",41.96166667,-6.772,1200,18,7,2.5,9,9.12,20.41,19.91,0.09,0.9,NA,0.04,5.055,3.078,0.81,0,0,0,0,0,0,0,0,0,0,0,0,0,0,0,0,0,0,0,0,0
"PT_VER",2015-09-08,"Lagoa Verde","CIBIO-UAC","Portugal",37.8428,-25.78891667,260,23,9.3,1.95,9.5,10.13,21.17,20.71,0.02,0.8,0.005,0.03,NA,5.868,2.403,0.699,0,0,0,0,0,0,0,0,0,0.002,0,0.0609,0,0.0042,0,0,0,0,0,0
"RU_LAD",2015-08-19,"Ladoga","ISPb","Russia",60.36027778,30.88777778,5,240,51,3.1,17.5,15.47,18.09,16.58,NA,NA,NA,NA,NA,NA,NA,NA,NA,NA,NA,NA,NA,NA,NA,NA,NA,0.002,0,0,0.0028,0.0068,0,0,0,0,NA,NA
"RU_SESRZ",2015-08-06,"Sestroretskij Razliv","ISPb","Russia",60.08472222,30,9,6,1.6,0.5,1.5,NA,20.5,20.47,NA,NA,NA,NA,NA,NA,NA,NA,NA,NA,NA,NA,NA,NA,NA,NA,NA,0.035,0,0.9116,0.0306,0.23,0,0,0,0,NA,NA
"RU_SU",2015-08-06,"Suzdal","ISPb","Russia",60.0425,30.305,20,11,5.5,0.5,1.5,NA,20.5,20.47,NA,NA,NA,NA,NA,NA,NA,NA,NA,NA,NA,NA,NA,NA,NA,NA,NA,0.065,1.7557,1.0357,0.1169,0.3395,0,0,0,0,NA,NA
"SE_EKO",2015-08-20,"Malaren Ekoln","ERKEN","Sweden",59.73298,17.547852,4,50,22,1.51,14,15.72,20.43,18.96,0.05,0.6,0.347,0.02,10.817,18.036,1.37,1.706,0,0,0,0,0,0.24,0,0,0,0.046,0.292,0,0.1287,0.0129,0,0,0,0,0.0036,0.0032
"SE_ERK",2015-08-19,"Erken","ERKEN","Sweden",59.84007,18.62512,11,21,9,4.89,13,19.06,19.66,18.96,0.07,0.5,0.017,0.03,12.248,4.471,0,0,0,0,0,0.216,0,0.195,0,0,0,0.002,0,0,0.0082,0,0,0,0,0,0,0
"SE_KRANKES",2015-07-22,"Krankesjon","LUNDSE","Sweden",55.70019444,13.47836111,19,3,1,1.48,2.5,NA,19.27,19.24,0.01,1,0.035,NA,NA,1.227,0,1.284,0,0,0,0.171,0,0,0,0,0,0.046,0,0,0.0115,0.4887,0,0,0,0,0,0
"SE_LIM",2015-07-10,"Limmaren","ERKEN","Sweden",59.73056667,18.73476667,4,8,4.6,1.18,7,6.78,18.91,18.86,0.05,0.9,0.005,0.15,8.909,28.663,0,0,0,0.611,0,0.259,0,0.547,0,0,0,0.099,0,0.6383,0.0369,0.6369,0,0,0,0,0,0.0028
"SE_LOT",2015-09-04,"Lotsjon","Uupsala","Sweden",59.86344444,17.94175,18,11,6,2.7,9,8.27,18.7,17.92,0.05,NA,0.013,0.05,5.646,13.795,1.028,0.601,0,0.483,0,0.507,0,0.546,0,0,0,0.005,0,0,0.0037,0.0042,0,0,0,0,0,0
"SE_RINGSJON",2015-08-06,"Eastern Ringsjon","LUNDSE","Sweden",55.86308333,13.54197222,54,18,5.6,1.03,10.5,4.76,18.94,18.37,0.03,0.7,NA,NA,NA,3.777,0.302,0.618,0,0.513,0,0.287,0,0.473,0,0,0.137,0.01,0.2342,0.1816,0.0515,0.0739,0,0,0,0,0,0.0016
"SE_SEPOND_I",2015-07-25,"Sepond_1","LUNDSE","Sweden",55.77933333,13.3615,NA,NA,NA,0.79,0.5,NA,17.84,17.83,0.18,0.9,NA,0.02,10.051,4.703,4.728,3.175,0,0,0,0,0,0,0,0,1.153,0,0,0,0,0,0,0,0,0,0,0
"SE_SEPOND_II",2015-07-25,"Sepond_2","LUNDSE","Sweden",55.73913889,13.20922222,NA,NA,NA,0.3,0.5,NA,17.73,17.73,0.11,0.8,NA,NA,4.784,67.972,16.056,13.631,0,1.37,0,0,0,0.797,0,0,0.994,0,0,0,0,0,0,0,0,0,0,0
"SE_STR",2015-09-04,"Strandsjon","Uupsala","Sweden",59.87247222,17.17066667,52,4,1.7,1.13,1.5,NA,16.7,16.88,0.03,NA,0.034,0.08,14.06,14.815,1.236,0.553,0,0.476,0,0,0,0,0,0,0,0.002,0,0,0,0,0,0,0,0,0,0
"SE_VAL",2015-07-13,"Vallentunasjon","ERKEN","Sweden",59.50832,18.0448,10,5,3,0.59,4,NA,18.92,18.8,0.08,0.6,0.008,0.07,9.346,55.71,10.447,3.588,0,1.675,0,0.803,0,0.936,0,0,0,0,0,0.2124,0.0173,0.0984,0,0,0,0,0.0015,0
"SE_VLX",2015-09-04,"Valloxen","Uupsala","Sweden",59.73936111,17.84322222,15,9,3.8,0.7,5,NA,17.7,17.68,0.04,0.4,0.026,0.06,NA,101.54,6.557,6.964,1.525,2.517,0,0.588,0,1.504,0,0,0.864,4.921,0,0.0253,3.166,0.1614,0,0,0,0,0.2229,0
"SE_VOMBSJON",2015-08-05,"Vombsjon","LUNDSE","Sweden",55.68172222,13.59277778,20,16,6.6,1.4,4.5,3.99,19.09,18.88,0.16,1.1,0.352,0.01,NA,2.802,0.794,1.253,0,0.641,0,0.33,0.564,1.049,0,0,0.257,0.023,0,0.1928,0.0098,0.0794,0,0,0,0,0,0.0268
"SI_BLE",2015-08-06,"Bled","NIB","Slovenia",46.36157778,14.08768333,475,30,17.9,7,12,11.62,24.17,20.06,0.16,NA,0.023,0.03,NA,4.173,0.308,0.378,0,0,0,0.141,0,0.09,0,0,0.088,0,0,0,0,0,0,0,0,0,0,0
"SI_GAJ",2015-08-06,"Gajsevsko","NIB","Slovenia",46.53325278,16.12036667,179,3,1.5,0.3,2,NA,23.9,23.32,0.17,0.6,0.012,0.12,17.175,23.505,6.917,5.007,0,0,0,0,0,0,0,0,0,0,0,0,0,0,0,0,0,0,0,0
"SI_LED",2015-08-06,"Ledavsko","NIB","Slovenia",46.74987778,16.040175,234,3,1.5,0.6,2,0.25,27.3,26.6,0.27,2,0.012,0.09,8.928,18.665,5.401,3.901,0,0,0,1.101,0,0.677,0,0,0,0.002,0,0,0,0,0,0,0,0,0,0
"SI_PER",2015-08-06,"Pernica","NIB","Slovenia",46.58318611,15.73239444,248,3,1.5,0.2,2,NA,26,25.68,0.46,4,0.029,0.15,24.731,414.646,21.625,6.362,5.163,12.833,0,7.655,0,8.846,0,0,0,0.002,0,0,0,0,0,0,0,0,0,0
"SK_KUC",2015-08-13,"Kuchajda","PHASR","Slovakia",48.17016667,17.14206667,126,5,NA,1.05,3.5,2.82,28.54,28.06,0.05,0.4,0.087,0.06,4.839,10.685,3.199,1.702,0,0,0,0,0.468,0.347,0,0,0,0.005,0,0.0629,0.0028,0.0541,0,0,0,0,0,0
"SK_MAL",2015-08-26,"Malinec","PHASR","Slovakia",48.52186667,19.66493333,347,55,NA,2.2,7,9.09,21.72,21.45,0.06,0.3,0.107,0.06,NA,3.598,1.251,0.718,0,0,0,0.078,0,0.074,0,0,0.144,0.007,0,0.0508,0.0024,0.0381,0,0,0,0,0,0
"SK_VIN",2015-08-18,"Vinne","PHASR","Slovakia",48.81695,21.98628333,250,4,3,0.45,2.5,2.69,25.96,25.81,0.02,0.2,0.012,0.02,41.714,32.78,2.834,3.932,0.32,1.249,0,1.089,0.325,0.732,0,0,0,0.002,0,0.1295,0.0028,0.0509,0,0,0,0,0.0015,0.0022
"SK_ZEM",2015-08-18,"Zemplinska","PHASR","Slovakia",48.79675,22.02086667,115,14,9.5,0.55,5,4.75,25.98,25.72,0.02,0.2,0.019,0.03,50.475,43.095,0.648,0,0,2.874,0,0,1.199,0.947,0,0,3.311,0.002,0,0.0194,0,0.0078,0,0,0,0,0,0
"TR_ABA",2015-08-26,"Abant","AIBU","Turkey",40.60005833,31.27861111,NA,NA,NA,4.5,7.5,7.25,22.11,21.41,NA,0.3,0.098,0.05,NA,1.713,0.035,0,0,0.347,0,0,0.18,0.187,0,0,0.042,0,0,0,0,0,0,0,0,0,0,0
"TR_ACR",2015-08-18,"Acarlar","SALIM","Turkey",41.1199,30.490133,1,3,2,0.75,2.5,1.77,25,23.57,0.11,0.7,0.018,0.11,42.367,0.6,0.273,0,0,0,0,0,0,0,0,0,0,0.002,0,0,0,0,0,0,0,0,0,0
"TR_AKG",2015-09-02,"Ak lake","Maraslioglu","Turkey",41.28194444,36.93722222,NA,NA,NA,0.3,1.5,NA,25.6,25.55,0.02,0.3,0.014,0.06,37.124,NA,NA,NA,NA,NA,NA,NA,NA,NA,NA,NA,NA,0.002,0,0,0.0168,1.1479,0,0,0,0,0,0
"TR_AKG2",2015-08-18,"Akgol","METUIMS","Turkey",36.29133333,33.96416667,0,1,0.8,0.29,0.8,NA,NA,NA,0.06,0.3,NA,0.03,71.81,3.36,0,1.212,0,0,0,0,0,0,0,0,0,0,0,0,0,0,0,0,0,0,0,0.0035
"TR_AKY",2015-08-21,"Akyatan","METUIMS","Turkey",36.58658333,35.31869444,0,1,NA,0.85,0.7,NA,32.86,32.86,0.14,0.3,0.027,0.35,242.639,1.376,0,0.55,0,0,0,0,0,0,0,0,0,0,0,0,0,0.0042,0,0,0,0,0,0
"TR_ALA",2015-09-01,"Aladag","AIBU","Turkey",40.60611111,31.67638889,1345,6,NA,0.7,4,0.83,20.59,19.48,0.14,0.4,0.108,0.06,7.151,11.262,0.271,0,0,0,0,0,0,0,0,0,0.577,0,0,0.0311,0,0.0107,0,0,0,0,0,0.0013
"TR_BAK",2015-08-14,"Buyuk Akgol","METU","Turkey",41.04777778,30.56472222,10,4,2.65,1.3,3,2.11,30.36,29.11,NA,0.6,NA,0.03,NA,0.49,0.159,0,0,1.323,0,0,0,0.402,0,0,0,0,0,0,0,0,0,0,0,0,0,0
"TR_BAL",2015-09-03,"Balik","Maraslioglu","Turkey",41.57916667,36.07722222,0,3,1,0.5,1.5,NA,27.3,27.15,NA,0.9,0.01,0.07,51.049,NA,NA,NA,NA,NA,NA,NA,NA,NA,NA,NA,NA,0.006,0,0.0966,0.0028,0.0267,0,0,0,0,0,0
"TR_BER",2015-08-19,"Berdan","METUIMS","Turkey",36.98116667,34.879,58,40,NA,3,8,6.2,31.16,25.15,NA,NA,0.279,0.02,NA,1.439,0.314,0.247,0,0,0,0,0,0,0,0,0,0,0,0,0,0,0,0,0,0,0,0
"TR_BEY_I",2015-08-10,"Beysehir_1","SARIM","Turkey",37.8302,31.4205,NA,NA,NA,0.99,6,NA,25.5,25.5,0.06,0.8,NA,0.09,NA,5.777,0.849,1.468,0,0,0,0,0,0,0,0,0,0,0,0,0,0,0,0,0,0,0,0
"TR_BEY_II",2015-08-10,"Beysehir_2","SARIM","Turkey",37.66118333,31.63313333,NA,NA,NA,0.75,6.5,NA,26.4,26.4,0.02,0.5,NA,0.05,NA,3.833,0.264,0.946,0,0,0,0,0,0,0,0,0,0,0,0,0,0,0,0,0,0,0,0
"TR_BOR",2015-08-30,"Borabay","Maraslioglu","Turkey",40.803618,36.153587,1067,10,1,0.6,2,1.75,21.2,20.96,0.02,NA,0.019,0.03,7.135,NA,NA,NA,NA,NA,NA,NA,NA,NA,NA,NA,NA,0,0,0,0,0,0,0,0,0,0,0
"TR_CAT",2015-08-20,"Catalan","METUIMS","Turkey",37.21497222,35.31344444,113,36,NA,3.2,8,12.45,30.7,29.01,0.54,0.5,0.276,0.03,NA,0.155,0,0,0,0,0,0,0,0,0,0,0,0,0,0,0,0,0,0,0,0,0,0
"TR_CER",2015-09-03,"Cernek","Maraslioglu","Turkey",41.63861111,36.06888889,0,2,1,0.15,1.5,NA,24.9,24.93,0.08,1.5,NA,0.06,84.131,NA,NA,NA,NA,NA,NA,NA,NA,NA,NA,NA,NA,0.059,0,0.2744,0.0094,0.2406,0,0,0,0,0.0188,0
"TR_CUB",2015-08-11,"Cubuk","METU","Turkey",40.48027778,30.83444444,NA,NA,NA,2.22,4.5,5.31,23.97,23.68,0.03,0.4,0.006,0.04,NA,0.108,0,0,0,0,0,0,0.49,0.531,0,0,0,0,0,0,0,0,0,0,0,0,0,0
"TR_CYG",2015-08-25,"Caygoren","SALIM","Turkey",39.252586,28.232628,261,34,NA,1.5,16,20.46,26.2,24.16,0.25,0.8,NA,0.04,37.555,1.165,0,0,0,0,0,0,0,0.088,0,0,0,0,0,0,0,0,0,0,0,0,0,0
"TR_EBER",2015-08-13,"Eber","SARIM","Turkey",38.6283,31.11801667,966,4,NA,0.4,2.5,NA,26.1,26.1,0.64,2.3,0.04,0.78,254.174,831.5,47.896,29.952,0,94.521,0,9.468,0,0,0,0,0,0.002,0,0.0361,0,0.0125,0,0,0,0,0,0
"TR_EGR_I",2015-08-12,"Egirdir_1","SARIM","Turkey",38.19378333,30.83833333,NA,NA,NA,2.7,8.5,NA,26.4,26.4,0.04,0.7,NA,0.11,NA,0.544,0.108,0.336,0,0.253,0,0.101,0,0.221,0,0,0.05,0,0,0.0058,0,0,0,0,0,0,0,0
"TR_EGR_II",2015-08-12,"Egirdir_2","SARIM","Turkey",37.96123333,30.89731667,NA,NA,NA,1.9,10,NA,26.9,26.9,NA,0.6,NA,0.04,28.851,16.485,0.69,0.307,0,3.163,0,0,0,0.675,0,0,0,0.002,0,0.012,0,0.0083,0,0,0,0,0,0
"TR_EYM",2015-08-11,"Eymir","METU","Turkey",39.82583333,32.8325,970,4,1.62,0.71,3.5,3.81,26.55,25.72,0.04,1.1,0.007,0.05,28.774,2.597,0,0.875,0,0,0,0,0,0,0.11,0,0.942,0.013,0.0514,0.7075,0.0075,0.247,0,0,0,0,0,0
"TR_GIC",2015-09-03,"Gici","Maraslioglu","Turkey",41.57861111,36.05972222,0,1,NA,0.25,0.5,NA,27,27.05,0.02,0.6,0.023,0.04,35.763,NA,NA,NA,NA,NA,NA,NA,NA,NA,NA,NA,NA,0.002,0,0,0,0,0,0,0,0,0,0.0073
"TR_GLC",2015-09-02,"Golcuk","AIBU","Turkey",40.65416667,31.62527778,1212,6,NA,1.75,4,3.25,22.82,21.57,0.13,0.4,0.1,0.06,11.225,10.719,0.75,1.501,0,0,0,0.26,0,0,0,0,0,0,0,0,0,0,0,0,0,0,0,0
"TR_GLH",2015-08-11,"Golhisar","SARIM","Turkey",37.12083333,29.59811667,947,4,NA,0.93,3.5,NA,26.2,26.2,0.04,0.6,NA,0.09,22.079,13.201,1.322,3.607,0,0.344,0,0,0,0,0,0,0,0.002,0,0.0075,0.0028,0.0035,0,0,0,0,0,0
"TR_GUM",2015-09-01,"Gumerdigin","OZEN","Turkey",40.45808333,33.26580556,1080,12,NA,2.75,8,8.75,21.06,20.18,0.07,0.3,NA,0.02,NA,9.806,0.72,0.538,0.965,0.276,0,0.228,1.55,1.157,0,0,0,0,0,0,0,0,0,0,0,0,0,0
"TR_IKIZ",2015-08-25,"Ikizcetepeler","SALIM","Turkey",39.473607,27.929277,NA,47,NA,1.75,14,16.27,24.7,22.06,0.04,0.5,NA,0.05,53.275,3.626,0.701,0.16,0,0.342,0,0,0.17,0.244,0,0,0,0,0,0,0,0,0,0,0,0,0,0
"TR_KAK",2015-08-14,"Kucuk Akgol","METU","Turkey",40.87833333,30.43194444,20,1,0.67,0.35,0.8,0.63,31.25,29.59,0.11,1.4,NA,0.04,7.637,1.704,0,3.011,0,0,0,0,0,0,0,0,0.381,0.045,0,0.5276,0.0166,0.2324,0,0,0,0,0,0.0139
"TR_KOR",2015-09-01,"Karaoren","OZEN","Turkey",40.50208333,33.23177778,1010,10,NA,1.9,4.5,6.95,20.71,19.66,0.2,0.2,NA,0.03,6.749,20.001,0.492,1.052,3.721,0,0,0.375,5.515,3.408,0,0,0,0,0,0,0,0,0,0,0,0,0,0
"TR_KOREN_I",2015-08-21,"Karacaoren_1","SARIM","Turkey",37.40211667,30.84833333,NA,NA,NA,2.16,20,NA,29.3,22.08,0.03,0.4,0.077,0.06,NA,5.086,0.973,0.958,0,0.127,0,0.148,0,0,0,0,0,0,0,0,0,0,0,0,0,0,0,0
"TR_KOREN_II",2015-08-21,"Karacaoren_2","SARIM","Turkey",37.30864722,30.81348056,NA,NA,NA,1.8,20,NA,25.8,15.7,0.06,0.6,0.246,0.17,NA,1.965,0.228,0,0,0.251,0,0.107,0,0.1,0,0,0,0,0,0,0,0,0,0,0,0,0,0
"TR_KOV",2015-08-06,"Kovada","SARIM","Turkey",37.6231,30.87921667,906,5,NA,0.72,3.8,NA,25.1,25.1,0.08,0.8,NA,0.02,18.002,49.753,2.499,3.879,0,0,0,1.099,0.293,0.439,0,0,0,0.094,0.0446,1.0283,0.0523,1.3254,0,0,0,0,0,0
"TR_KRD",2015-09-02,"Karadere","OZEN","Turkey",40.50197222,33.48494444,1000,10,NA,5.1,10,2.21,17.88,16.46,0.16,0.5,0.032,0.02,NA,0.828,0,0.267,0,0,0,0,0.263,0.167,0,0,0,0,0,0,0,0,0,0,0,0,0,0
"TR_KRM",2015-08-13,"Karamik","SARIM","Turkey",38.43063333,30.85913333,1003,5,NA,2,2.5,NA,26.7,26.7,0.1,1.2,NA,0.07,38.609,3.595,0,0.334,0,0,0,0.132,0.443,0.35,0,0,0,0,0,0,0,0,0,0,0,0,0,0
"TR_KRT",2015-08-07,"Karatas","SARIM","Turkey",37.38566667,29.96963333,1054,5,2,0.5,4.14,NA,26.3,26.3,0.07,0.5,NA,0.11,NA,16.341,0.557,0.662,0,2.522,0,0.19,0,0.427,0,0,0,0,0,0,0,0,0,0,0,0,0,0
"TR_KUZ",2015-09-05,"Kuzgun","SULAB FAKIOGLU","Turkey",40.196153,41.050553,NA,22,18,0.6,10,0.75,23.7,22.65,0.07,0.2,NA,0.02,6.108,1.274,0,0,0,0,0,0,0,0,0,0,0,NA,NA,NA,NA,NA,NA,NA,NA,NA,NA,NA
"TR_LAD",2015-08-30,"Ladik","Maraslioglu","Turkey",40.90722222,36.00861111,868,3,1,0.3,1,0.25,21,20.5,0.12,0.6,0.105,0.6,8.777,NA,NA,NA,NA,NA,NA,NA,NA,NA,NA,NA,NA,0,0,0,0,0,0,0,0,0,0,0
"TR_LIM",2015-09-03,"Liman","Maraslioglu","Turkey",41.69833333,36.01861111,0,3,NA,0.5,1.5,NA,25,24.9,NA,0.5,NA,0.02,86.988,NA,NA,NA,NA,NA,NA,NA,NA,NA,NA,NA,NA,0.006,0,0.0693,0.0024,0.033,0,0,0,0,9e-04,0
"TR_MOG",2015-08-11,"Mogan","METU","Turkey",39.77888889,32.79611111,975,5,2.44,1.2,3,3.47,26.86,25.41,0.04,1.3,0.007,0.05,21.525,7.762,0.715,2.707,0.41,1.041,0,0.611,0.528,1.606,0,0,0,0,0,0,0,0,0,0,0,0,0.0816,0.0037
"TR_MOL",2015-08-18,"Mollakoy","SALIM","Turkey",40.688141,30.389838,40,11,5.6,2.5,4,2.9,28.6,24.38,0.02,0.5,0.005,0.08,13.883,0.48,0.137,0,0,0,0,0,0,0,0,0,0,0,0,0,0,0,0,0,0,0,7e-04,0
"TR_PAL",2015-09-04,"Palandoken","SULAB FAKIOGLU","Turkey",39.67133333,41.02433333,NA,NA,NA,1.5,5.5,2.99,19.8,19.33,0.02,1.4,NA,0.2,35.642,1.78,0,0,0,0,0,0,0,0,0,0,0,NA,NA,NA,NA,NA,NA,NA,NA,NA,NA,NA
"TR_PAR",2015-08-18,"Paradeniz","METUIMS","Turkey",36.30111,34.0111944,0,2,NA,1.03,1,NA,NA,NA,0.06,0.1,0.011,0.05,209.053,2.663,0,1.595,0,0,0,0,0,0,0,0,0,0.002,0,0,0,0,0,0,0,0,0,0
"TR_POY",2015-08-13,"Poyrazlar","METU","Turkey",40.83833333,30.46888889,36,5,2,3.76,3.5,4.25,29.28,28.57,0.05,0.9,NA,0.03,4.537,0.698,0.157,0.52,0,0,0,0.135,0.279,0.263,0,0,0,0,0,0,0,0,0,0,0,0,0,0
"TR_SAR",2015-09-02,"Saraykoy","OZEN","Turkey",40.52980556,33.46688889,994,18,5,1.75,7,1.67,21.84,21.24,0.37,0.8,NA,0.02,14.854,5.175,0.652,0.733,0.662,0.196,0,0.256,1.108,0.921,0.112,0,0.112,0,0,0,0,0,0,0,0,0,0,0
"TR_SBN",2015-09-01,"Sabanozu","OZEN","Turkey",40.52286111,33.26955556,1000,10,NA,2.4,6,6.92,21.48,20.38,0.18,0.4,NA,0.02,5.74,3.129,0.45,0.665,0.376,0,0,0,0.183,0.326,0,0,0.143,0,0,0,0,0,0,0,0,0,0,0
"TR_SER",2015-09-02,"Sera","Maraslioglu","Turkey",40.98805556,39.61833333,75,25,NA,0.4,1,1.36,23.12,22.59,0.06,2.8,2.193,0.08,20.867,NA,NA,NA,NA,NA,NA,NA,NA,NA,NA,NA,NA,0,0,0,0,0,0,0,0,0,0,7e-04
"TR_SEY",2015-08-20,"Seyhan","METUIMS","Turkey",37.05530556,35.33230556,30,31,NA,3.6,8,16.49,30.97,29.81,1.03,0.4,0.291,0.02,2.809,0.896,0,0,0,0,0,0,0,0,0,0,0,0.002,0,0,0,0,0,0,0,0,0,0
"TR_SEYD",2015-09-02,"Seydi","OZEN","Turkey",40.57358333,33.46125,957,19,NA,3,8.5,8.82,22.6,22.14,0.1,0.4,NA,NA,NA,0.484,0,0,0,0,0,0,0,0,0,0,0,0,0,0,0,0,0,0,0,0,0,0
"TR_SIM",2015-09-02,"Simenit","Maraslioglu","Turkey",41.29777778,36.92805556,0,2,0.5,0.4,1.5,NA,25.3,25.1,NA,0.8,0.008,0.03,56.132,NA,NA,NA,NA,NA,NA,NA,NA,NA,NA,NA,NA,0.028,0,0,0.0376,1.916,0,0,0,0,NA,NA
"TR_SUG",2015-08-14,"Sugla","SARIM","Turkey",37.32455556,31.99213889,1091,4,NA,0.99,4.3,NA,27.5,27.5,0.05,0.8,NA,0.05,NA,22.672,7.829,2.132,0,0,0,0,0,0,0,0,0,0,0,0,0,0,0,0,0,0,0,0
"TR_TAS",2015-08-13,"Taskisigi","METU","Turkey",40.87055556,30.40111111,33,3,2.5,0.47,3,0.71,31,28.92,0.06,0.9,NA,0.03,5.249,5.6,0,3.447,3.498,0,0,0.423,0.602,0.35,0,0,1.186,0.075,0.0907,1.1464,0.0469,1.8176,0,0,0,0,0.0433,0
"TR_TAT",2015-09-03,"Tatli","Maraslioglu","Turkey",41.57222222,36.06583333,0,2,NA,0.3,1,NA,27,27.07,NA,0.4,NA,0.13,39.835,NA,NA,NA,NA,NA,NA,NA,NA,NA,NA,NA,NA,0.002,0,0,0,0,0,0,0,0,0,0.0111
"TR_TER",2015-09-06,"Tercan","SULAB FAKIOGLU","Turkey",39.75291667,40.40922222,NA,22,17,0.85,6,0.75,19.65,19.35,0.16,0.5,0.098,0.03,5.889,NA,NA,NA,NA,0,0,0,0,0,0,0,0,NA,NA,NA,NA,NA,NA,NA,NA,NA,NA,NA
"TR_TOR",2015-09-07,"Tortum","SULAB FAKIOGLU","Turkey",40.64923333,41.64139722,NA,160,100,1.15,14,5.5,21.8,22.47,0.04,0.6,0.197,0.48,4.997,0.828,0,0,0,0,0,0,0,0,0,0,0,NA,NA,NA,NA,NA,NA,NA,NA,NA,NA,NA
"TR_UABT",2015-08-20,"Uluabat","BURSA-METE YILMAZ","Turkey",40.19072222,28.54881667,9,10,2.5,0.25,2.5,NA,27.5,27.5,0.05,1.2,0.008,0.03,24.705,55.399,3.75,2.701,0,4.227,0,0.583,0,0.736,0,0,0,0.005,0,0.0623,0.0028,0.0466,0,0,0,0,0,0.0036
"TR_ULU",2015-08-20,"Ulugol-Mesudiye","Odulim","Turkey",40.398611,37.833611,1200,NA,15,0.4,0.5,NA,25.9,25.95,NA,NA,NA,NA,NA,NA,NA,NA,NA,NA,NA,NA,NA,NA,NA,NA,NA,NA,NA,NA,NA,NA,NA,NA,NA,NA,NA,NA
"TR_UZU",2015-09-02,"Uzungol","Maraslioglu","Turkey",40.61916667,40.29361111,1250,10,NA,2.7,3,5.75,16.91,16.44,0.02,0.4,0.067,0.11,NA,NA,NA,NA,NA,NA,NA,NA,NA,NA,NA,NA,NA,0,0,0,0,0,0,0,0,0,0,0
"TR_YNC",2015-08-27,"Yenicaga","AIBU","Turkey",40.77861111,32.02527778,NA,NA,NA,1.75,3.5,1.3,24.11,23.29,0.12,0.3,0.135,0.16,21.833,7.644,0,0.271,0,1.228,0,0,0,0.22,0,0,0,0,0,0,0.0028,0.0357,0,0,0,0,0,0
"UK_BASS",2015-08-20,"Bassenthwaite","Lancaster","UK",54.65444444,-3.219794444,68,21,NA,2.2,20.5,10.5,17.6,17.08,0.03,NA,0.096,NA,NA,1.34,0.316,0,0,0,0,0,0,0,0,0,0,0,0,0,0.0028,0,0,0,0,0,0,0
"UK_BLE",2015-08-17,"Blelham","Lancaster","UK",54.39690556,-2.978013889,47,15,6.8,1.5,14,7.65,18.4,13.41,NA,NA,0.001,NA,7.617,15.746,1.339,1.062,0,0,0,1.718,0,0.952,0,0,0,0,0,0,0.0028,0,0,0,0,0,0,0
"UK_DER",2015-08-20,"Derwent","Lancaster","UK",54.576175,-3.135458333,75,22,5.5,3.6,20,17.6,17.7,16.04,0.01,NA,NA,NA,NA,0.708,0.114,0,0,0,0,0,0,0,0,0,0,0,0,0,0,0,0,0,0,0,0,0
"UK_ERN",2015-08-17,"Erne","AFBI","UK",54.48544444,-7.843722222,46,66,12,2.8,7,NA,15.7,15.45,0.06,0.3,0.284,0.02,21.451,0.407,0,0,0,0,0,0,0,0,0,0,0,0,0,0,0,0,0,0,0,0,0,0
"UK_GRAS",2015-08-17,"Grasmere","Lancaster","UK",54.44869167,-3.019344444,62,21,NA,2.75,5,8.67,16.8,15.7,0.13,0.4,0.063,NA,19.698,3.011,0.827,0.35,0,0,0,0.349,0,0.232,0,0,0,0,0,0,0,0,0,0,0,0,0,0
"UK_NEA",2015-08-24,"Neagh","AFBI","UK",54.58241667,-6.396222222,16,34,8.9,2.8,7,NA,16.4,16.27,0.08,0.8,0.001,NA,50.819,64.977,0,6.614,2.323,0,0,0,0,0,0,0,0,2.59,6.5903,0,2.8946,0.0756,0,0,0,0,0.0334,0
"UK_WN",2015-08-18,"Windermere North Basin","Lancaster","UK",54.39711389,-2.951833333,39,67,NA,2.5,12.5,13.81,17.5,15.79,0.04,NA,0.081,NA,NA,3.515,0.326,0.503,0,0,0,0,0,0,0,0,0,0.002,0,0,0.0129,0,0,0,0,0,0,0
"UK_WS",2015-08-18,"Windermere South Basin","Lancaster","UK",54.31443333,-2.951461111,40,68,NA,2.75,14.5,13.75,18,15.7,0.15,NA,0.112,NA,0.915,5.938,0.313,0.905,0,0,0,0,0,0,0,0,0,0.002,0,0,0.0062,0.0042,0,0,0,0,0,0.0011
